{"result":[{"arrival":"12:41:00","id":"D03N","lat":"40.873244","lon":"-73.887138","name":"Bedford Park Blvd"},{"arrival":"12:41:00","id":"F24N","lat":"40.666271","lon":"-73.980305","name":"7 Av"},{"arrival":"12:41:00","id":"S14S","lat":"40.52241","lon":"-74.217847","name":"Pleasant Plains"},{"arrival":"12:41:00","id":"S14S","lat":"40.52241","lon":"-74.217847","name":"Pleasant Plains"},{"arrival":"12:41:00","id":"S14S","lat":"40.52241","lon":"-74.217847","name":"Pleasant Plains"},{"arrival":"12:41:30","id":"238S","lat":"40.671987","lon":"-73.964375","name":"Eastern Pkwy - Brooklyn Museum"},{"arrival":"12:41:30","id":"M01S","lat":"40.711396","lon":"-73.889601","name":"Middle Village - Metropolitan Av"},{"arrival":"12:41:30","id":"A30N","lat":"40.745906","lon":"-73.998041","name":"23 St"},{"arrival":"12:41:00","id":"719S","lat":"40.747023","lon":"-73.945264","name":"Court Sq"},{"arrival":"12:41:30","id":"A27S","lat":"40.757308","lon":"-73.989735","name":"42 St - Port Authority Bus Terminal"},{"arrival":"12:41:00","id":"A27S","lat":"40.757308","lon":"-73.989735","name":"42 St - Port Authority Bus Terminal"},{"arrival":"12:41:30","id":"A27S","lat":"40.757308","lon":"-73.989735","name":"42 St - Port Authority Bus Terminal"},{"arrival":"12:41:00","id":"119N","lat":"40.799446","lon":"-73.968379","name":"103 St"},{"arrival":"12:41:30","id":"B20N","lat":"40.604556","lon":"-73.998168","name":"20 Av"},{"arrival":"12:41:30","id":"412S","lat":"40.840075","lon":"-73.917791","name":"170 St"},{"arrival":"12:41:30","id":"412S","lat":"40.840075","lon":"-73.917791","name":"170 St"},{"arrival":"12:41:00","id":"119S","lat":"40.799446","lon":"-73.968379","name":"103 St"},{"arrival":"12:41:30","id":"B19N","lat":"40.607954","lon":"-74.001736","name":"18 Av"},{"arrival":"12:41:30","id":"B19N","lat":"40.607954","lon":"-74.001736","name":"18 Av"},{"arrival":"12:41:30","id":"F24S","lat":"40.666271","lon":"-73.980305","name":"7 Av"},{"arrival":"12:41:00","id":"F24S","lat":"40.666271","lon":"-73.980305","name":"7 Av"},{"arrival":"12:41:00","id":"L03N","lat":"40.734789","lon":"-73.99073","name":"Union Sq - 14 St"},{"arrival":"12:41:00","id":"L03N","lat":"40.734789","lon":"-73.99073","name":"Union Sq - 14 St"},{"arrival":"12:41:00","id":"621N","lat":"40.804138","lon":"-73.937594","name":"125 St"},{"arrival":"12:41:00","id":"218S","lat":"40.822181","lon":"-73.896736","name":"Intervale Av"},{"arrival":"12:41:30","id":"B10S","lat":"40.763972","lon":"-73.97745","name":"57 St"},{"arrival":"12:41:30","id":"N04S","lat":"40.624842","lon":"-73.996353","name":"New Utrecht Av"},{"arrival":"12:41:30","id":"N04S","lat":"40.624842","lon":"-73.996353","name":"New Utrecht Av"},{"arrival":"12:41:30","id":"F09S","lat":"40.747846","lon":"-73.946","name":"Court Sq"},{"arrival":"12:41:30","id":"F11N","lat":"40.757552","lon":"-73.969055","name":"Lexington Av\/53 St"},{"arrival":"12:41:00","id":"207N","lat":"40.883895","lon":"-73.862633","name":"219 St"},{"arrival":"12:41:00","id":"N04N","lat":"40.624842","lon":"-73.996353","name":"New Utrecht Av"},{"arrival":"12:41:30","id":"123S","lat":"40.778453","lon":"-73.98197","name":"72 St"},{"arrival":"12:41:00","id":"A27N","lat":"40.757308","lon":"-73.989735","name":"42 St - Port Authority Bus Terminal"},{"arrival":"12:41:30","id":"A27N","lat":"40.757308","lon":"-73.989735","name":"42 St - Port Authority Bus Terminal"},{"arrival":"12:41:00","id":"614S","lat":"40.816104","lon":"-73.896435","name":"Longwood Av"},{"arrival":"12:41:00","id":"614S","lat":"40.816104","lon":"-73.896435","name":"Longwood Av"},{"arrival":"12:41:30","id":"716S","lat":"40.744587","lon":"-73.930997","name":"33 St"},{"arrival":"12:41:00","id":"L27N","lat":"40.658733","lon":"-73.899232","name":"New Lots Av"},{"arrival":"12:41:00","id":"D22S","lat":"40.718267","lon":"-73.993753","name":"Grand St"},{"arrival":"12:41:00","id":"D22S","lat":"40.718267","lon":"-73.993753","name":"Grand St"},{"arrival":"12:41:00","id":"R21S","lat":"40.730328","lon":"-73.992629","name":"8 St - NYU"},{"arrival":"12:41:00","id":"R21S","lat":"40.730328","lon":"-73.992629","name":"8 St - NYU"},{"arrival":"12:41:30","id":"Q01S","lat":"40.718383","lon":"-74.00046","name":"Canal St"},{"arrival":"12:41:00","id":"D42S","lat":"40.576127","lon":"-73.975939","name":"W 8 St - NY Aquarium"},{"arrival":"12:41:00","id":"D42S","lat":"40.576127","lon":"-73.975939","name":"W 8 St - NY Aquarium"},{"arrival":"12:41:00","id":"F25N","lat":"40.660365","lon":"-73.979493","name":"15 St - Prospect Park"},{"arrival":"12:41:30","id":"F25N","lat":"40.660365","lon":"-73.979493","name":"15 St - Prospect Park"},{"arrival":"12:41:00","id":"F25N","lat":"40.660365","lon":"-73.979493","name":"15 St - Prospect Park"},{"arrival":"12:41:30","id":"231N","lat":"40.697466","lon":"-73.993086","name":"Clark St"},{"arrival":"12:41:30","id":"231N","lat":"40.697466","lon":"-73.993086","name":"Clark St"},{"arrival":"12:41:30","id":"231N","lat":"40.697466","lon":"-73.993086","name":"Clark St"},{"arrival":"12:41:00","id":"G31N","lat":"40.700377","lon":"-73.950234","name":"Flushing Av"},{"arrival":"12:41:00","id":"G31N","lat":"40.700377","lon":"-73.950234","name":"Flushing Av"},{"arrival":"12:41:00","id":"A60N","lat":"40.679843","lon":"-73.85147","name":"88 St"},{"arrival":"12:41:00","id":"423N","lat":"40.692404","lon":"-73.990151","name":"Borough Hall"},{"arrival":"12:41:30","id":"902N","lat":"40.755983","lon":"-73.986229","name":"Times Sq - 42 St"},{"arrival":"12:41:30","id":"902N","lat":"40.755983","lon":"-73.986229","name":"Times Sq - 42 St"},{"arrival":"12:41:00","id":"M11N","lat":"40.697207","lon":"-73.935657","name":"Myrtle Av"},{"arrival":"12:41:30","id":"632N","lat":"40.746081","lon":"-73.982076","name":"33 St"},{"arrival":"12:41:00","id":"632N","lat":"40.746081","lon":"-73.982076","name":"33 St"},{"arrival":"12:41:30","id":"F39S","lat":"40.581011","lon":"-73.974574","name":"Neptune Av"},{"arrival":"12:41:30","id":"J17N","lat":"40.691324","lon":"-73.867139","name":"75 St"},{"arrival":"12:41:00","id":"250N","lat":"40.668897","lon":"-73.932942","name":"Crown Hts - Utica Av"},{"arrival":"12:41:00","id":"250N","lat":"40.668897","lon":"-73.932942","name":"Crown Hts - Utica Av"},{"arrival":"12:41:30","id":"L21N","lat":"40.682829","lon":"-73.905249","name":"Bushwick Av - Aberdeen St"},{"arrival":"12:41:30","id":"L21N","lat":"40.682829","lon":"-73.905249","name":"Bushwick Av - Aberdeen St"},{"arrival":"12:41:30","id":"718N","lat":"40.750582","lon":"-73.940202","name":"Queensboro Plaza"},{"arrival":"12:41:00","id":"A42S","lat":"40.688484","lon":"-73.985001","name":"Hoyt - Schermerhorn Sts"},{"arrival":"12:41:30","id":"A42S","lat":"40.688484","lon":"-73.985001","name":"Hoyt - Schermerhorn Sts"},{"arrival":"12:41:00","id":"A42N","lat":"40.688484","lon":"-73.985001","name":"Hoyt - Schermerhorn Sts"},{"arrival":"12:41:30","id":"A42N","lat":"40.688484","lon":"-73.985001","name":"Hoyt - Schermerhorn Sts"},{"arrival":"12:41:00","id":"A42N","lat":"40.688484","lon":"-73.985001","name":"Hoyt - Schermerhorn Sts"},{"arrival":"12:41:00","id":"A03S","lat":"40.865491","lon":"-73.927271","name":"Dyckman St"},{"arrival":"12:41:00","id":"A03S","lat":"40.865491","lon":"-73.927271","name":"Dyckman St"},{"arrival":"12:41:30","id":"416S","lat":"40.813224","lon":"-73.929849","name":"138 St - Grand Concourse"},{"arrival":"12:41:00","id":"416S","lat":"40.813224","lon":"-73.929849","name":"138 St - Grand Concourse"},{"arrival":"12:41:30","id":"416S","lat":"40.813224","lon":"-73.929849","name":"138 St - Grand Concourse"},{"arrival":"12:41:00","id":"108N","lat":"40.864621","lon":"-73.918822","name":"207 St"},{"arrival":"12:41:00","id":"N10S","lat":"40.592721","lon":"-73.97823","name":"86 St"},{"arrival":"12:41:00","id":"N10S","lat":"40.592721","lon":"-73.97823","name":"86 St"},{"arrival":"12:41:00","id":"L12N","lat":"40.711926","lon":"-73.94067","name":"Grand St"},{"arrival":"12:41:30","id":"124N","lat":"40.77344","lon":"-73.982209","name":"66 St - Lincoln Center"},{"arrival":"12:41:30","id":"243S","lat":"40.656652","lon":"-73.9502","name":"Winthrop St"},{"arrival":"12:41:30","id":"B14N","lat":"40.63626","lon":"-73.994791","name":"50 St"},{"arrival":"12:41:30","id":"A51S","lat":"40.678334","lon":"-73.905316","name":"Broadway Jct"},{"arrival":"12:41:30","id":"B14S","lat":"40.63626","lon":"-73.994791","name":"50 St"},{"arrival":"12:41:00","id":"G07N","lat":"40.702566","lon":"-73.816859","name":"Jamaica - Van Wyck"},{"arrival":"12:41:00","id":"R32N","lat":"40.677316","lon":"-73.98311","name":"Union St"},{"arrival":"12:41:00","id":"R32N","lat":"40.677316","lon":"-73.98311","name":"Union St"},{"arrival":"12:41:30","id":"D21N","lat":"40.725297","lon":"-73.996204","name":"Broadway-Lafayette St"},{"arrival":"12:41:30","id":"G10S","lat":"40.729846","lon":"-73.861604","name":"63 Dr - Rego Park"},{"arrival":"12:41:00","id":"713S","lat":"40.744149","lon":"-73.912549","name":"52 St"},{"arrival":"12:41:00","id":"R25N","lat":"40.710668","lon":"-74.011029","name":"Cortlandt St"},{"arrival":"12:41:00","id":"A30S","lat":"40.745906","lon":"-73.998041","name":"23 St"},{"arrival":"12:41:30","id":"F04N","lat":"40.70546","lon":"-73.810708","name":"Sutphin Blvd"},{"arrival":"12:41:30","id":"418N","lat":"40.710368","lon":"-74.009509","name":"Fulton St"},{"arrival":"12:41:30","id":"418N","lat":"40.710368","lon":"-74.009509","name":"Fulton St"},{"arrival":"12:41:30","id":"235N","lat":"40.684359","lon":"-73.977666","name":"Atlantic Av - Barclays Ctr"},{"arrival":"12:41:30","id":"235N","lat":"40.684359","lon":"-73.977666","name":"Atlantic Av - Barclays Ctr"},{"arrival":"12:41:00","id":"221N","lat":"40.816109","lon":"-73.917757","name":"3 Av - 149 St"},{"arrival":"12:41:00","id":"221N","lat":"40.816109","lon":"-73.917757","name":"3 Av - 149 St"},{"arrival":"12:41:30","id":"D07S","lat":"40.85041","lon":"-73.905227","name":"Tremont Av"},{"arrival":"12:41:30","id":"B23S","lat":"40.588841","lon":"-73.983765","name":"Bay 50 St"},{"arrival":"12:41:30","id":"B23S","lat":"40.588841","lon":"-73.983765","name":"Bay 50 St"},{"arrival":"12:41:30","id":"G33S","lat":"40.689627","lon":"-73.953522","name":"Bedford - Nostrand Avs"},{"arrival":"12:41:30","id":"R17S","lat":"40.749567","lon":"-73.98795","name":"34 St - Herald Sq"},{"arrival":"12:41:00","id":"714N","lat":"40.743132","lon":"-73.918435","name":"46 St"},{"arrival":"12:41:00","id":"714N","lat":"40.743132","lon":"-73.918435","name":"46 St"},{"arrival":"12:41:00","id":"F21S","lat":"40.680303","lon":"-73.995048","name":"Carroll St"},{"arrival":"12:41:30","id":"F21S","lat":"40.680303","lon":"-73.995048","name":"Carroll St"},{"arrival":"12:41:30","id":"640S","lat":"40.713065","lon":"-74.004131","name":"Brooklyn Bridge - City Hall"},{"arrival":"12:41:30","id":"640S","lat":"40.713065","lon":"-74.004131","name":"Brooklyn Bridge - City Hall"},{"arrival":"12:41:30","id":"640S","lat":"40.713065","lon":"-74.004131","name":"Brooklyn Bridge - City Hall"},{"arrival":"12:41:00","id":"D07N","lat":"40.85041","lon":"-73.905227","name":"Tremont Av"},{"arrival":"12:41:00","id":"D07N","lat":"40.85041","lon":"-73.905227","name":"Tremont Av"},{"arrival":"12:41:00","id":"S04S","lat":"40.670343","lon":"-73.959245","name":"Botanic Garden"},{"arrival":"12:41:00","id":"R23S","lat":"40.719527","lon":"-74.001775","name":"Canal St"},{"arrival":"12:41:30","id":"R34S","lat":"40.665414","lon":"-73.992872","name":"Prospect Av"},{"arrival":"12:41:30","id":"420S","lat":"40.704817","lon":"-74.014065","name":"Bowling Green"},{"arrival":"12:41:30","id":"D12S","lat":"40.830135","lon":"-73.938209","name":"155 St"},{"arrival":"12:41:00","id":"F06N","lat":"40.714441","lon":"-73.831008","name":"Kew Gardens - Union Tpke"},{"arrival":"12:41:30","id":"230N","lat":"40.706821","lon":"-74.0091","name":"Wall St"},{"arrival":"12:41:00","id":"F30N","lat":"40.629755","lon":"-73.976971","name":"18 Av"},{"arrival":"12:41:00","id":"711N","lat":"40.746325","lon":"-73.896403","name":"69 St"},{"arrival":"12:41:30","id":"D28N","lat":"40.650527","lon":"-73.962982","name":"Church Av"},{"arrival":"12:41:00","id":"F30S","lat":"40.629755","lon":"-73.976971","name":"18 Av"},{"arrival":"12:41:30","id":"F30S","lat":"40.629755","lon":"-73.976971","name":"18 Av"},{"arrival":"12:41:30","id":"D12N","lat":"40.830135","lon":"-73.938209","name":"155 St"},{"arrival":"12:41:30","id":"D12N","lat":"40.830135","lon":"-73.938209","name":"155 St"},{"arrival":"12:41:30","id":"F06S","lat":"40.714441","lon":"-73.831008","name":"Kew Gardens - Union Tpke"},{"arrival":"12:41:30","id":"A61S","lat":"40.680429","lon":"-73.843853","name":"Rockaway Blvd"},{"arrival":"12:41:30","id":"237S","lat":"40.675235","lon":"-73.971046","name":"Grand Army Plaza"},{"arrival":"12:41:00","id":"D43N","lat":"40.577422","lon":"-73.981233","name":"Coney Island - Stillwell Av"},{"arrival":"12:41:00","id":"D43N","lat":"40.577422","lon":"-73.981233","name":"Coney Island - Stillwell Av"},{"arrival":"12:41:00","id":"D43N","lat":"40.577422","lon":"-73.981233","name":"Coney Island - Stillwell Av"},{"arrival":"12:41:00","id":"D43N","lat":"40.577422","lon":"-73.981233","name":"Coney Island - Stillwell Av"},{"arrival":"12:41:00","id":"R08N","lat":"40.752882","lon":"-73.932755","name":"39 Av"},{"arrival":"12:41:30","id":"619S","lat":"40.810476","lon":"-73.926138","name":"3 Av - 138 St"},{"arrival":"12:41:30","id":"L13S","lat":"40.707739","lon":"-73.93985","name":"Montrose Av"},{"arrival":"12:41:00","id":"G34S","lat":"40.688873","lon":"-73.96007","name":"Classon Av"},{"arrival":"12:41:30","id":"H15N","lat":"40.580903","lon":"-73.835592","name":"Rockaway Park - Beach 116 St"},{"arrival":"12:41:00","id":"R01S","lat":"40.775036","lon":"-73.912034","name":"Astoria - Ditmars Blvd"},{"arrival":"12:41:30","id":"635N","lat":"40.734673","lon":"-73.989951","name":"14 St - Union Sq"},{"arrival":"12:41:30","id":"227N","lat":"40.799075","lon":"-73.951822","name":"Central Park North (110 St)"},{"arrival":"12:41:30","id":"D05S","lat":"40.861296","lon":"-73.897749","name":"Fordham Rd"},{"arrival":"12:41:30","id":"D05S","lat":"40.861296","lon":"-73.897749","name":"Fordham Rd"},{"arrival":"12:41:00","id":"R15S","lat":"40.759901","lon":"-73.984139","name":"49 St"},{"arrival":"12:41:30","id":"629S","lat":"40.762526","lon":"-73.967967","name":"59 St"},{"arrival":"12:41:30","id":"L13N","lat":"40.707739","lon":"-73.93985","name":"Montrose Av"},{"arrival":"12:41:30","id":"L13N","lat":"40.707739","lon":"-73.93985","name":"Montrose Av"},{"arrival":"12:41:00","id":"411N","lat":"40.844434","lon":"-73.914685","name":"Mt Eden Av"},{"arrival":"12:41:00","id":"635S","lat":"40.734673","lon":"-73.989951","name":"14 St - Union Sq"},{"arrival":"12:41:30","id":"504N","lat":"40.858985","lon":"-73.855359","name":"Pelham Pkwy"},{"arrival":"12:41:00","id":"L11S","lat":"40.714565","lon":"-73.944053","name":"Graham Av"},{"arrival":"12:41:30","id":"L11S","lat":"40.714565","lon":"-73.944053","name":"Graham Av"},{"arrival":"12:41:30","id":"113N","lat":"40.834041","lon":"-73.94489","name":"157 St"},{"arrival":"12:41:30","id":"J19N","lat":"40.689941","lon":"-73.87255","name":"Cypress Hills"},{"arrival":"12:41:00","id":"J19N","lat":"40.689941","lon":"-73.87255","name":"Cypress Hills"},{"arrival":"12:41:30","id":"F39N","lat":"40.581011","lon":"-73.974574","name":"Neptune Av"},{"arrival":"12:41:30","id":"J19S","lat":"40.689941","lon":"-73.87255","name":"Cypress Hills"},{"arrival":"12:41:00","id":"F27S","lat":"40.644041","lon":"-73.979678","name":"Church Av"},{"arrival":"12:41:30","id":"F27S","lat":"40.644041","lon":"-73.979678","name":"Church Av"},{"arrival":"12:41:30","id":"603S","lat":"40.843863","lon":"-73.836322","name":"Middletown Rd"},{"arrival":"12:41:30","id":"603S","lat":"40.843863","lon":"-73.836322","name":"Middletown Rd"},{"arrival":"12:41:00","id":"A44N","lat":"40.683263","lon":"-73.965838","name":"Clinton - Washington Avs"},{"arrival":"12:41:30","id":"A44S","lat":"40.683263","lon":"-73.965838","name":"Clinton - Washington Avs"},{"arrival":"12:41:30","id":"B17S","lat":"40.619589","lon":"-73.998864","name":"71 St"},{"arrival":"12:41:30","id":"B17S","lat":"40.619589","lon":"-73.998864","name":"71 St"},{"arrival":"12:41:00","id":"A11S","lat":"40.830518","lon":"-73.941514","name":"155 St"},{"arrival":"12:41:00","id":"A11S","lat":"40.830518","lon":"-73.941514","name":"155 St"},{"arrival":"12:41:00","id":"216S","lat":"40.829993","lon":"-73.891865","name":"Freeman St"},{"arrival":"12:41:00","id":"216S","lat":"40.829993","lon":"-73.891865","name":"Freeman St"},{"arrival":"12:41:30","id":"F12N","lat":"40.760167","lon":"-73.975224","name":"5 Av\/53 St"},{"arrival":"12:41:30","id":"J22S","lat":"40.679947","lon":"-73.884639","name":"Cleveland St"},{"arrival":"12:41:30","id":"134N","lat":"40.728251","lon":"-74.005367","name":"Houston St"},{"arrival":"12:41:00","id":"134N","lat":"40.728251","lon":"-74.005367","name":"Houston St"},{"arrival":"12:41:00","id":"D30S","lat":"40.640927","lon":"-73.963891","name":"Cortelyou Rd"},{"arrival":"12:41:00","id":"D30S","lat":"40.640927","lon":"-73.963891","name":"Cortelyou Rd"},{"arrival":"12:41:30","id":"R43S","lat":"40.629742","lon":"-74.02551","name":"77 St"},{"arrival":"12:41:30","id":"216N","lat":"40.829993","lon":"-73.891865","name":"Freeman St"},{"arrival":"12:41:00","id":"G16S","lat":"40.752885","lon":"-73.906006","name":"Northern Blvd"},{"arrival":"12:41:00","id":"G16S","lat":"40.752885","lon":"-73.906006","name":"Northern Blvd"},{"arrival":"12:41:00","id":"G08S","lat":"40.721691","lon":"-73.844521","name":"Forest Hills - 71 Av"},{"arrival":"12:41:00","id":"G08S","lat":"40.721691","lon":"-73.844521","name":"Forest Hills - 71 Av"},{"arrival":"12:41:00","id":"617N","lat":"40.805368","lon":"-73.914042","name":"Cypress Av"},{"arrival":"12:41:30","id":"L20N","lat":"40.688764","lon":"-73.904046","name":"Wilson Av"},{"arrival":"12:41:00","id":"A32S","lat":"40.732338","lon":"-74.000495","name":"W 4 St"},{"arrival":"12:41:00","id":"A32S","lat":"40.732338","lon":"-74.000495","name":"W 4 St"},{"arrival":"12:41:00","id":"M18N","lat":"40.718315","lon":"-73.987437","name":"Essex St"},{"arrival":"12:41:00","id":"R16S","lat":"40.754672","lon":"-73.986754","name":"Times Sq - 42 St"},{"arrival":"12:41:00","id":"R16S","lat":"40.754672","lon":"-73.986754","name":"Times Sq - 42 St"},{"arrival":"12:41:00","id":"709N","lat":"40.747659","lon":"-73.883697","name":"82 St - Jackson Hts"},{"arrival":"12:41:00","id":"G30N","lat":"40.706092","lon":"-73.950308","name":"Broadway"},{"arrival":"12:41:00","id":"D25S","lat":"40.67705","lon":"-73.972367","name":"7 Av"},{"arrival":"12:41:00","id":"D25S","lat":"40.67705","lon":"-73.972367","name":"7 Av"},{"arrival":"12:41:30","id":"D16N","lat":"40.754222","lon":"-73.984569","name":"42 St - Bryant Pk"},{"arrival":"12:41:30","id":"709S","lat":"40.747659","lon":"-73.883697","name":"82 St - Jackson Hts"},{"arrival":"12:41:30","id":"709S","lat":"40.747659","lon":"-73.883697","name":"82 St - Jackson Hts"},{"arrival":"12:41:00","id":"234S","lat":"40.688246","lon":"-73.980492","name":"Nevins St"},{"arrival":"12:41:30","id":"234S","lat":"40.688246","lon":"-73.980492","name":"Nevins St"},{"arrival":"12:41:00","id":"234S","lat":"40.688246","lon":"-73.980492","name":"Nevins St"},{"arrival":"12:41:00","id":"R16N","lat":"40.754672","lon":"-73.986754","name":"Times Sq - 42 St"},{"arrival":"12:41:00","id":"R16N","lat":"40.754672","lon":"-73.986754","name":"Times Sq - 42 St"},{"arrival":"12:41:00","id":"R16N","lat":"40.754672","lon":"-73.986754","name":"Times Sq - 42 St"},{"arrival":"12:41:00","id":"625S","lat":"40.785672","lon":"-73.95107","name":"96 St"},{"arrival":"12:41:00","id":"625S","lat":"40.785672","lon":"-73.95107","name":"96 St"},{"arrival":"12:41:30","id":"A21S","lat":"40.781433","lon":"-73.972143","name":"81 St - Museum of Natural History"},{"arrival":"12:41:00","id":"631S","lat":"40.751776","lon":"-73.976848","name":"Grand Central - 42 St"},{"arrival":"12:41:30","id":"631S","lat":"40.751776","lon":"-73.976848","name":"Grand Central - 42 St"},{"arrival":"12:41:30","id":"631N","lat":"40.751776","lon":"-73.976848","name":"Grand Central - 42 St"},{"arrival":"12:41:30","id":"631N","lat":"40.751776","lon":"-73.976848","name":"Grand Central - 42 St"},{"arrival":"12:41:30","id":"408S","lat":"40.858407","lon":"-73.903879","name":"183 St"},{"arrival":"12:41:30","id":"415N","lat":"40.818375","lon":"-73.927351","name":"149 St - Grand Concourse"},{"arrival":"12:41:30","id":"401N","lat":"40.886037","lon":"-73.878751","name":"Woodlawn"},{"arrival":"12:41:30","id":"401N","lat":"40.886037","lon":"-73.878751","name":"Woodlawn"},{"arrival":"12:41:30","id":"A02N","lat":"40.868072","lon":"-73.919899","name":"Inwood - 207 St"},{"arrival":"12:41:00","id":"D17S","lat":"40.749719","lon":"-73.987823","name":"34 St - Herald Sq"},{"arrival":"12:41:30","id":"A15S","lat":"40.811109","lon":"-73.952343","name":"125 St"},{"arrival":"12:41:30","id":"117N","lat":"40.807722","lon":"-73.96411","name":"116 St - Columbia University"},{"arrival":"12:41:30","id":"117N","lat":"40.807722","lon":"-73.96411","name":"116 St - Columbia University"},{"arrival":"12:41:00","id":"127N","lat":"40.75529","lon":"-73.987495","name":"Times Sq - 42 St"},{"arrival":"12:41:00","id":"L01S","lat":"40.739777","lon":"-74.002578","name":"8 Av"},{"arrival":"12:41:00","id":"L01S","lat":"40.739777","lon":"-74.002578","name":"8 Av"},{"arrival":"12:41:00","id":"137S","lat":"40.715478","lon":"-74.009266","name":"Chambers St"},{"arrival":"12:41:00","id":"137S","lat":"40.715478","lon":"-74.009266","name":"Chambers St"},{"arrival":"12:41:00","id":"137N","lat":"40.715478","lon":"-74.009266","name":"Chambers St"},{"arrival":"12:41:30","id":"L15S","lat":"40.706607","lon":"-73.922913","name":"Jefferson St"},{"arrival":"12:41:30","id":"140N","lat":"40.701411","lon":"-74.013205","name":"South Ferry Loop"},{"arrival":"12:41:30","id":"A15N","lat":"40.811109","lon":"-73.952343","name":"125 St"},{"arrival":"12:41:30","id":"213N","lat":"40.841894","lon":"-73.873488","name":"E 180 St"},{"arrival":"12:41:30","id":"213N","lat":"40.841894","lon":"-73.873488","name":"E 180 St"},{"arrival":"12:41:30","id":"H06N","lat":"40.590927","lon":"-73.796924","name":"Beach 67 St"},{"arrival":"12:41:00","id":"213S","lat":"40.841894","lon":"-73.873488","name":"E 180 St"},{"arrival":"12:41:30","id":"213S","lat":"40.841894","lon":"-73.873488","name":"E 180 St"},{"arrival":"12:41:30","id":"213S","lat":"40.841894","lon":"-73.873488","name":"E 180 St"},{"arrival":"12:41:30","id":"D26N","lat":"40.661614","lon":"-73.962246","name":"Prospect Park"},{"arrival":"12:41:30","id":"D26N","lat":"40.661614","lon":"-73.962246","name":"Prospect Park"},{"arrival":"12:41:00","id":"D26N","lat":"40.661614","lon":"-73.962246","name":"Prospect Park"},{"arrival":"12:41:00","id":"130S","lat":"40.744081","lon":"-73.995657","name":"23 St"},{"arrival":"12:41:30","id":"702S","lat":"40.754622","lon":"-73.845625","name":"Mets - Willets Point"},{"arrival":"12:41:00","id":"R13N","lat":"40.764811","lon":"-73.973347","name":"5 Av\/59 St"},{"arrival":"12:41:30","id":"D33S","lat":"40.625039","lon":"-73.960803","name":"Avenue J"},{"arrival":"12:41:30","id":"121N","lat":"40.788644","lon":"-73.976218","name":"86 St"},{"arrival":"12:41:00","id":"211S","lat":"40.857192","lon":"-73.867615","name":"Pelham Pkwy"},{"arrival":"12:41:30","id":"135N","lat":"40.722854","lon":"-74.006277","name":"Canal St"},{"arrival":"12:41:30","id":"A17N","lat":"40.800603","lon":"-73.958161","name":"Cathedral Pkwy (110 St)"},{"arrival":"12:41:00","id":"D33N","lat":"40.625039","lon":"-73.960803","name":"Avenue J"},{"arrival":"12:41:00","id":"A34N","lat":"40.720824","lon":"-74.005229","name":"Canal St"},{"arrival":"12:41:30","id":"A34N","lat":"40.720824","lon":"-74.005229","name":"Canal St"},{"arrival":"12:41:00","id":"A34N","lat":"40.720824","lon":"-74.005229","name":"Canal St"},{"arrival":"12:41:00","id":"616S","lat":"40.808719","lon":"-73.907657","name":"E 143 St - St Mary's St"},{"arrival":"12:41:30","id":"616N","lat":"40.808719","lon":"-73.907657","name":"E 143 St - St Mary's St"},{"arrival":"12:41:00","id":"D20N","lat":"40.732338","lon":"-74.000495","name":"W 4 St"},{"arrival":"12:41:00","id":"D20N","lat":"40.732338","lon":"-74.000495","name":"W 4 St"},{"arrival":"12:41:00","id":"L25S","lat":"40.669367","lon":"-73.901975","name":"Sutter Av"},{"arrival":"12:41:30","id":"L25S","lat":"40.669367","lon":"-73.901975","name":"Sutter Av"},{"arrival":"12:41:30","id":"D20S","lat":"40.732338","lon":"-74.000495","name":"W 4 St"},{"arrival":"12:41:00","id":"R35N","lat":"40.660397","lon":"-73.998091","name":"25 St"},{"arrival":"12:41:00","id":"712S","lat":"40.74563","lon":"-73.902984","name":"Woodside - 61 St"},{"arrival":"12:41:30","id":"L29N","lat":"40.646654","lon":"-73.90185","name":"Canarsie - Rockaway Pkwy"},{"arrival":"12:41:00","id":"712N","lat":"40.74563","lon":"-73.902984","name":"Woodside - 61 St"},{"arrival":"12:41:30","id":"224S","lat":"40.814229","lon":"-73.94077","name":"135 St"},{"arrival":"12:41:30","id":"224S","lat":"40.814229","lon":"-73.94077","name":"135 St"},{"arrival":"12:41:00","id":"103S","lat":"40.884667","lon":"-73.90087","name":"238 St"},{"arrival":"12:41:30","id":"606S","lat":"40.836488","lon":"-73.847036","name":"Zerega Av"},{"arrival":"12:41:00","id":"606N","lat":"40.836488","lon":"-73.847036","name":"Zerega Av"},{"arrival":"12:41:00","id":"606N","lat":"40.836488","lon":"-73.847036","name":"Zerega Av"},{"arrival":"12:41:00","id":"103N","lat":"40.884667","lon":"-73.90087","name":"238 St"},{"arrival":"12:41:30","id":"630N","lat":"40.757107","lon":"-73.97192","name":"51 St"},{"arrival":"12:41:00","id":"252N","lat":"40.661453","lon":"-73.916327","name":"Saratoga Av"},{"arrival":"12:41:30","id":"A19S","lat":"40.791642","lon":"-73.964696","name":"96 St"},{"arrival":"12:41:30","id":"A19S","lat":"40.791642","lon":"-73.964696","name":"96 St"},{"arrival":"12:41:00","id":"414N","lat":"40.827994","lon":"-73.925831","name":"161 St - Yankee Stadium"},{"arrival":"12:41:00","id":"414N","lat":"40.827994","lon":"-73.925831","name":"161 St - Yankee Stadium"},{"arrival":"12:41:30","id":"A33N","lat":"40.726227","lon":"-74.003739","name":"Spring St"},{"arrival":"12:41:00","id":"252S","lat":"40.661453","lon":"-73.916327","name":"Saratoga Av"},{"arrival":"12:41:30","id":"110S","lat":"40.855225","lon":"-73.929412","name":"191 St"},{"arrival":"12:41:30","id":"G26S","lat":"40.731352","lon":"-73.954449","name":"Greenpoint Av"},{"arrival":"12:41:30","id":"L29S","lat":"40.646654","lon":"-73.90185","name":"Canarsie - Rockaway Pkwy"},{"arrival":"12:41:00","id":"B04S","lat":"40.754203","lon":"-73.942836","name":"21 St - Queensbridge"},{"arrival":"12:41:30","id":"A28N","lat":"40.752287","lon":"-73.993391","name":"34 St - Penn Station"},{"arrival":"12:41:00","id":"J27N","lat":"40.679498","lon":"-73.904512","name":"Broadway Jct"},{"arrival":"12:41:30","id":"R45N","lat":"40.616622","lon":"-74.030876","name":"Bay Ridge - 95 St"},{"arrival":"12:41:30","id":"R45N","lat":"40.616622","lon":"-74.030876","name":"Bay Ridge - 95 St"},{"arrival":"12:41:30","id":"J27S","lat":"40.679498","lon":"-73.904512","name":"Broadway Jct"},{"arrival":"12:41:30","id":"D37S","lat":"40.5993","lon":"-73.955929","name":"Avenue U"},{"arrival":"12:41:30","id":"D37S","lat":"40.5993","lon":"-73.955929","name":"Avenue U"},{"arrival":"12:41:00","id":"A46N","lat":"40.680438","lon":"-73.950426","name":"Nostrand Av"},{"arrival":"12:41:00","id":"215N","lat":"40.837288","lon":"-73.887734","name":"174 St"},{"arrival":"12:41:00","id":"131S","lat":"40.74104","lon":"-73.997871","name":"18 St"},{"arrival":"12:41:00","id":"N06N","lat":"40.61741","lon":"-73.985026","name":"20 Av"},{"arrival":"12:41:00","id":"N06N","lat":"40.61741","lon":"-73.985026","name":"20 Av"},{"arrival":"12:41:00","id":"701S","lat":"40.7596","lon":"-73.83003","name":"Flushing - Main St"},{"arrival":"12:41:00","id":"F18N","lat":"40.701397","lon":"-73.986751","name":"York St"},{"arrival":"12:41:30","id":"F11S","lat":"40.757552","lon":"-73.969055","name":"Lexington Av\/53 St"},{"arrival":"12:41:00","id":"612N","lat":"40.826525","lon":"-73.886283","name":"Whitlock Av"},{"arrival":"12:41:00","id":"F18S","lat":"40.701397","lon":"-73.986751","name":"York St"},{"arrival":"12:41:00","id":"F18S","lat":"40.701397","lon":"-73.986751","name":"York St"},{"arrival":"12:41:30","id":"G22N","lat":"40.746554","lon":"-73.943832","name":"Court Sq"},{"arrival":"12:41:30","id":"A21N","lat":"40.781433","lon":"-73.972143","name":"81 St - Museum of Natural History"},{"arrival":"12:41:30","id":"A21N","lat":"40.781433","lon":"-73.972143","name":"81 St - Museum of Natural History"},{"arrival":"12:41:00","id":"D08N","lat":"40.8459","lon":"-73.910136","name":"174-175 Sts"},{"arrival":"12:41:00","id":"D01S","lat":"40.874811","lon":"-73.878855","name":"Norwood - 205 St"},{"arrival":"12:41:00","id":"D15S","lat":"40.758663","lon":"-73.981329","name":"47-50 Sts - Rockefeller Ctr"},{"arrival":"12:41:00","id":"D15S","lat":"40.758663","lon":"-73.981329","name":"47-50 Sts - Rockefeller Ctr"},{"arrival":"12:41:30","id":"F23S","lat":"40.670272","lon":"-73.989779","name":"4 Av"},{"arrival":"12:41:00","id":"708S","lat":"40.748408","lon":"-73.876613","name":"90 St - Elmhurst Av"},{"arrival":"12:41:00","id":"M13N","lat":"40.703869","lon":"-73.947408","name":"Lorimer St"},{"arrival":"12:41:30","id":"622N","lat":"40.798629","lon":"-73.941617","name":"116 St"},{"arrival":"12:41:30","id":"H02S","lat":"40.668234","lon":"-73.834058","name":"Aqueduct - N Conduit Av"},{"arrival":"12:41:30","id":"B13N","lat":"40.640914","lon":"-73.994304","name":"Fort Hamilton Pkwy"},{"arrival":"12:41:30","id":"B13N","lat":"40.640914","lon":"-73.994304","name":"Fort Hamilton Pkwy"},{"arrival":"12:41:30","id":"114N","lat":"40.826551","lon":"-73.95036","name":"145 St"},{"arrival":"12:41:30","id":"114N","lat":"40.826551","lon":"-73.95036","name":"145 St"},{"arrival":"12:41:30","id":"A12S","lat":"40.824783","lon":"-73.944216","name":"145 St"},{"arrival":"12:41:30","id":"245N","lat":"40.645098","lon":"-73.948959","name":"Beverly Rd"},{"arrival":"12:41:00","id":"J30S","lat":"40.68963","lon":"-73.92227","name":"Gates Av"},{"arrival":"12:41:00","id":"245S","lat":"40.645098","lon":"-73.948959","name":"Beverly Rd"},{"arrival":"12:41:30","id":"126S","lat":"40.761728","lon":"-73.983849","name":"50 St"},{"arrival":"12:41:30","id":"L02N","lat":"40.737335","lon":"-73.996786","name":"6 Av"},{"arrival":"12:41:30","id":"138N","lat":"40.711835","lon":"-74.012188","name":"Cortlandt St"},{"arrival":"12:41:00","id":"212N","lat":"40.848828","lon":"-73.868457","name":"Bronx Park East"},{"arrival":"12:41:00","id":"L16S","lat":"40.703811","lon":"-73.918425","name":"DeKalb Av"},{"arrival":"12:41:30","id":"301N","lat":"40.82388","lon":"-73.93647","name":"Harlem - 148 St"},{"arrival":"12:41:00","id":"301S","lat":"40.82388","lon":"-73.93647","name":"Harlem - 148 St"},{"arrival":"12:41:00","id":"A65N","lat":"40.685951","lon":"-73.825798","name":"Ozone Park - Lefferts Blvd"},{"arrival":"12:41:30","id":"S01S","lat":"40.680596","lon":"-73.955827","name":"Franklin Av"},{"arrival":"12:41:00","id":"S29S","lat":"40.627915","lon":"-74.075162","name":"Stapleton"},{"arrival":"12:41:00","id":"S29S","lat":"40.627915","lon":"-74.075162","name":"Stapleton"},{"arrival":"12:41:00","id":"S29S","lat":"40.627915","lon":"-74.075162","name":"Stapleton"},{"arrival":"12:41:00","id":"111S","lat":"40.849505","lon":"-73.933596","name":"181 St"},{"arrival":"12:41:00","id":"111N","lat":"40.849505","lon":"-73.933596","name":"181 St"},{"arrival":"12:41:30","id":"A33S","lat":"40.726227","lon":"-74.003739","name":"Spring St"},{"arrival":"12:41:30","id":"129N","lat":"40.747215","lon":"-73.993365","name":"28 St"},{"arrival":"12:41:00","id":"129N","lat":"40.747215","lon":"-73.993365","name":"28 St"},{"arrival":"12:41:00","id":"A54S","lat":"40.67413","lon":"-73.88075","name":"Shepherd Av"},{"arrival":"12:41:00","id":"R30N","lat":"40.690635","lon":"-73.981824","name":"DeKalb Av"},{"arrival":"12:41:30","id":"R30N","lat":"40.690635","lon":"-73.981824","name":"DeKalb Av"},{"arrival":"12:41:30","id":"247N","lat":"40.632836","lon":"-73.947642","name":"Flatbush Av - Brooklyn College"},{"arrival":"12:41:30","id":"247N","lat":"40.632836","lon":"-73.947642","name":"Flatbush Av - Brooklyn College"},{"arrival":"12:41:30","id":"210S","lat":"40.865462","lon":"-73.867352","name":"Allerton Av"},{"arrival":"12:41:30","id":"210S","lat":"40.865462","lon":"-73.867352","name":"Allerton Av"},{"arrival":"12:41:30","id":"136S","lat":"40.719318","lon":"-74.006886","name":"Franklin St"},{"arrival":"12:41:30","id":"A14S","lat":"40.817894","lon":"-73.947649","name":"135 St"},{"arrival":"12:41:30","id":"A14N","lat":"40.817894","lon":"-73.947649","name":"135 St"},{"arrival":"12:41:30","id":"A14N","lat":"40.817894","lon":"-73.947649","name":"135 St"},{"arrival":"12:41:30","id":"116S","lat":"40.815581","lon":"-73.958372","name":"125 St"},{"arrival":"12:41:30","id":"A38N","lat":"40.710197","lon":"-74.007691","name":"Fulton St"},{"arrival":"12:41:00","id":"A38N","lat":"40.710197","lon":"-74.007691","name":"Fulton St"},{"arrival":"12:41:30","id":"723S","lat":"40.751431","lon":"-73.976041","name":"Grand Central - 42 St"},{"arrival":"12:41:30","id":"A38S","lat":"40.710197","lon":"-74.007691","name":"Fulton St"},{"arrival":"12:41:30","id":"G06N","lat":"40.700486","lon":"-73.807969","name":"Sutphin Blvd - Archer Av - JFK Airport"},{"arrival":"12:41:00","id":"R20N","lat":"40.735736","lon":"-73.990568","name":"14 St - Union Sq"},{"arrival":"12:41:00","id":"R20N","lat":"40.735736","lon":"-73.990568","name":"14 St - Union Sq"},{"arrival":"12:41:00","id":"R30S","lat":"40.690635","lon":"-73.981824","name":"DeKalb Av"},{"arrival":"12:41:00","id":"R19N","lat":"40.741303","lon":"-73.989344","name":"23 St"},{"arrival":"12:41:00","id":"R19N","lat":"40.741303","lon":"-73.989344","name":"23 St"},{"arrival":"12:41:30","id":"F32N","lat":"40.620769","lon":"-73.975264","name":"Bay Pkwy"},{"arrival":"12:41:00","id":"F32N","lat":"40.620769","lon":"-73.975264","name":"Bay Pkwy"},{"arrival":"12:41:00","id":"707N","lat":"40.749145","lon":"-73.869527","name":"Junction Blvd"},{"arrival":"12:41:30","id":"638N","lat":"40.722301","lon":"-73.997141","name":"Spring St"},{"arrival":"12:41:00","id":"638N","lat":"40.722301","lon":"-73.997141","name":"Spring St"},{"arrival":"12:41:00","id":"232S","lat":"40.693219","lon":"-73.989998","name":"Borough Hall"},{"arrival":"12:41:00","id":"D14N","lat":"40.762862","lon":"-73.981637","name":"7 Av"},{"arrival":"12:41:00","id":"D14N","lat":"40.762862","lon":"-73.981637","name":"7 Av"},{"arrival":"12:41:30","id":"239S","lat":"40.670682","lon":"-73.958131","name":"Franklin Av"},{"arrival":"12:41:30","id":"239S","lat":"40.670682","lon":"-73.958131","name":"Franklin Av"},{"arrival":"12:41:30","id":"239S","lat":"40.670682","lon":"-73.958131","name":"Franklin Av"},{"arrival":"12:41:00","id":"J12S","lat":"40.700492","lon":"-73.828294","name":"121 St"},{"arrival":"12:41:00","id":"503N","lat":"40.869526","lon":"-73.846384","name":"Gun Hill Rd"},{"arrival":"12:41:00","id":"503N","lat":"40.869526","lon":"-73.846384","name":"Gun Hill Rd"},{"arrival":"12:41:30","id":"M06N","lat":"40.702762","lon":"-73.90774","name":"Seneca Av"},{"arrival":"12:41:30","id":"G28S","lat":"40.724635","lon":"-73.951277","name":"Nassau Av"},{"arrival":"12:41:00","id":"607N","lat":"40.834255","lon":"-73.851222","name":"Castle Hill Av"},{"arrival":"12:41:00","id":"239N","lat":"40.670682","lon":"-73.958131","name":"Franklin Av"},{"arrival":"12:41:00","id":"239N","lat":"40.670682","lon":"-73.958131","name":"Franklin Av"},{"arrival":"12:41:00","id":"724N","lat":"40.753821","lon":"-73.981963","name":"5 Av"},{"arrival":"12:41:00","id":"724N","lat":"40.753821","lon":"-73.981963","name":"5 Av"},{"arrival":"12:41:00","id":"724N","lat":"40.753821","lon":"-73.981963","name":"5 Av"},{"arrival":"12:41:00","id":"637N","lat":"40.725915","lon":"-73.994659","name":"Bleecker St"},{"arrival":"12:41:00","id":"627N","lat":"40.77362","lon":"-73.959874","name":"77 St"},{"arrival":"12:41:30","id":"A32N","lat":"40.732338","lon":"-74.000495","name":"W 4 St"},{"arrival":"12:41:00","id":"249N","lat":"40.669399","lon":"-73.942161","name":"Kingston Av"},{"arrival":"12:41:00","id":"721N","lat":"40.742626","lon":"-73.953581","name":"Vernon Blvd - Jackson Av"},{"arrival":"12:41:30","id":"R03N","lat":"40.770258","lon":"-73.917843","name":"Astoria Blvd"},{"arrival":"12:41:30","id":"F02N","lat":"40.71047","lon":"-73.793604","name":"169 St"},{"arrival":"12:41:30","id":"109N","lat":"40.860531","lon":"-73.925536","name":"Dyckman St"},{"arrival":"12:41:30","id":"125S","lat":"40.768247","lon":"-73.981929","name":"59 St - Columbus Circle"},{"arrival":"12:41:00","id":"M08S","lat":"40.69943","lon":"-73.912385","name":"Myrtle - Wyckoff Avs"},{"arrival":"12:41:00","id":"242S","lat":"40.662742","lon":"-73.95085","name":"Sterling St"},{"arrival":"12:41:30","id":"A50N","lat":"40.67834","lon":"-73.911946","name":"Rockaway Av"},{"arrival":"12:41:30","id":"A50N","lat":"40.67834","lon":"-73.911946","name":"Rockaway Av"},{"arrival":"12:41:00","id":"A50S","lat":"40.67834","lon":"-73.911946","name":"Rockaway Av"},{"arrival":"12:41:30","id":"132N","lat":"40.737826","lon":"-74.000201","name":"14 St"},{"arrival":"12:41:30","id":"132N","lat":"40.737826","lon":"-74.000201","name":"14 St"},{"arrival":"12:41:00","id":"F02S","lat":"40.71047","lon":"-73.793604","name":"169 St"},{"arrival":"12:41:30","id":"206S","lat":"40.888022","lon":"-73.860341","name":"225 St"},{"arrival":"12:41:30","id":"G13N","lat":"40.742454","lon":"-73.882017","name":"Elmhurst Av"},{"arrival":"12:41:30","id":"G13N","lat":"40.742454","lon":"-73.882017","name":"Elmhurst Av"},{"arrival":"12:41:30","id":"G13N","lat":"40.742454","lon":"-73.882017","name":"Elmhurst Av"},{"arrival":"12:41:00","id":"H14N","lat":"40.583209","lon":"-73.827559","name":"Beach 105 St"},{"arrival":"12:41:30","id":"J20S","lat":"40.683194","lon":"-73.873785","name":"Crescent St"},{"arrival":"12:41:00","id":"724S","lat":"40.753821","lon":"-73.981963","name":"5 Av"},{"arrival":"12:41:00","id":"206N","lat":"40.888022","lon":"-73.860341","name":"225 St"},{"arrival":"12:41:00","id":"206N","lat":"40.888022","lon":"-73.860341","name":"225 St"},{"arrival":"12:41:00","id":"132S","lat":"40.737826","lon":"-74.000201","name":"14 St"},{"arrival":"12:41:30","id":"R36S","lat":"40.655144","lon":"-74.003549","name":"36 St"},{"arrival":"12:41:30","id":"R36S","lat":"40.655144","lon":"-74.003549","name":"36 St"},{"arrival":"12:41:00","id":"R36S","lat":"40.655144","lon":"-74.003549","name":"36 St"},{"arrival":"12:41:30","id":"R36S","lat":"40.655144","lon":"-74.003549","name":"36 St"},{"arrival":"12:41:30","id":"G07S","lat":"40.702566","lon":"-73.816859","name":"Jamaica - Van Wyck"},{"arrival":"12:41:30","id":"D39S","lat":"40.586896","lon":"-73.954155","name":"Sheepshead Bay"},{"arrival":"12:41:00","id":"609S","lat":"40.831509","lon":"-73.867618","name":"St Lawrence Av"},{"arrival":"12:41:00","id":"609S","lat":"40.831509","lon":"-73.867618","name":"St Lawrence Av"},{"arrival":"12:41:00","id":"A34S","lat":"40.720824","lon":"-74.005229","name":"Canal St"},{"arrival":"12:41:00","id":"F03S","lat":"40.707564","lon":"-73.803326","name":"Parsons Blvd"},{"arrival":"12:41:30","id":"D39N","lat":"40.586896","lon":"-73.954155","name":"Sheepshead Bay"},{"arrival":"12:41:00","id":"H06S","lat":"40.590927","lon":"-73.796924","name":"Beach 67 St"},{"arrival":"12:41:30","id":"236N","lat":"40.680829","lon":"-73.975098","name":"Bergen St"},{"arrival":"12:41:00","id":"R14S","lat":"40.764664","lon":"-73.980658","name":"57 St - 7 Av"},{"arrival":"12:41:00","id":"R14S","lat":"40.764664","lon":"-73.980658","name":"57 St - 7 Av"},{"arrival":"12:41:00","id":"410N","lat":"40.84848","lon":"-73.911794","name":"176 St"},{"arrival":"12:41:00","id":"410N","lat":"40.84848","lon":"-73.911794","name":"176 St"},{"arrival":"12:41:00","id":"R14N","lat":"40.764664","lon":"-73.980658","name":"57 St - 7 Av"},{"arrival":"12:41:30","id":"634S","lat":"40.739864","lon":"-73.986599","name":"23 St"},{"arrival":"12:41:00","id":"M21S","lat":"40.713243","lon":"-74.003401","name":"Chambers St"},{"arrival":"12:41:30","id":"251S","lat":"40.664717","lon":"-73.92261","name":"Sutter Av - Rutland Rd"},{"arrival":"12:41:00","id":"H03S","lat":"40.660476","lon":"-73.830301","name":"Howard Beach - JFK Airport"},{"arrival":"12:41:30","id":"H13S","lat":"40.585307","lon":"-73.820558","name":"Beach 98 St"},{"arrival":"12:41:00","id":"E01S","lat":"40.712582","lon":"-74.009781","name":"World Trade Center"},{"arrival":"12:41:00","id":"A48S","lat":"40.679364","lon":"-73.930729","name":"Utica Av"},{"arrival":"12:41:30","id":"A48S","lat":"40.679364","lon":"-73.930729","name":"Utica Av"},{"arrival":"12:41:00","id":"A48S","lat":"40.679364","lon":"-73.930729","name":"Utica Av"},{"arrival":"12:41:30","id":"725S","lat":"40.755477","lon":"-73.987691","name":"Times Sq - 42 St"}]}