{"result":[{"arrival":"17:02:00","id":"635S","lat":"40.734673","lon":"-73.989951","name":"14 St - Union Sq"},{"arrival":"17:02:00","id":"220S","lat":"40.81649","lon":"-73.907807","name":"Jackson Av"},{"arrival":"17:02:30","id":"301N","lat":"40.82388","lon":"-73.93647","name":"Harlem - 148 St"},{"arrival":"17:02:00","id":"D10S","lat":"40.833771","lon":"-73.91844","name":"167 St"},{"arrival":"17:02:30","id":"F29N","lat":"40.636119","lon":"-73.978172","name":"Ditmas Av"},{"arrival":"17:02:30","id":"136N","lat":"40.719318","lon":"-74.006886","name":"Franklin St"},{"arrival":"17:02:00","id":"124S","lat":"40.77344","lon":"-73.982209","name":"66 St - Lincoln Center"},{"arrival":"17:02:00","id":"G08S","lat":"40.721691","lon":"-73.844521","name":"Forest Hills - 71 Av"},{"arrival":"17:02:00","id":"G08S","lat":"40.721691","lon":"-73.844521","name":"Forest Hills - 71 Av"},{"arrival":"17:02:30","id":"G08S","lat":"40.721691","lon":"-73.844521","name":"Forest Hills - 71 Av"},{"arrival":"17:02:00","id":"108N","lat":"40.864621","lon":"-73.918822","name":"207 St"},{"arrival":"17:02:30","id":"F11N","lat":"40.757552","lon":"-73.969055","name":"Lexington Av\/53 St"},{"arrival":"17:02:30","id":"108S","lat":"40.864621","lon":"-73.918822","name":"207 St"},{"arrival":"17:02:30","id":"F11S","lat":"40.757552","lon":"-73.969055","name":"Lexington Av\/53 St"},{"arrival":"17:02:30","id":"136S","lat":"40.719318","lon":"-74.006886","name":"Franklin St"},{"arrival":"17:02:30","id":"136S","lat":"40.719318","lon":"-74.006886","name":"Franklin St"},{"arrival":"17:02:30","id":"M06S","lat":"40.702762","lon":"-73.90774","name":"Seneca Av"},{"arrival":"17:02:00","id":"714S","lat":"40.743132","lon":"-73.918435","name":"46 St"},{"arrival":"17:02:30","id":"714S","lat":"40.743132","lon":"-73.918435","name":"46 St"},{"arrival":"17:02:30","id":"233N","lat":"40.690545","lon":"-73.985065","name":"Hoyt St"},{"arrival":"17:02:30","id":"233N","lat":"40.690545","lon":"-73.985065","name":"Hoyt St"},{"arrival":"17:02:30","id":"613S","lat":"40.820948","lon":"-73.890549","name":"Hunts Point Av"},{"arrival":"17:02:30","id":"613N","lat":"40.820948","lon":"-73.890549","name":"Hunts Point Av"},{"arrival":"17:02:30","id":"714N","lat":"40.743132","lon":"-73.918435","name":"46 St"},{"arrival":"17:02:00","id":"G30N","lat":"40.706092","lon":"-73.950308","name":"Broadway"},{"arrival":"17:02:30","id":"G30N","lat":"40.706092","lon":"-73.950308","name":"Broadway"},{"arrival":"17:02:00","id":"A09S","lat":"40.840719","lon":"-73.939561","name":"168 St"},{"arrival":"17:02:30","id":"L27S","lat":"40.658733","lon":"-73.899232","name":"New Lots Av"},{"arrival":"17:02:00","id":"L27N","lat":"40.658733","lon":"-73.899232","name":"New Lots Av"},{"arrival":"17:02:30","id":"406N","lat":"40.86776","lon":"-73.897174","name":"Kingsbridge Rd"},{"arrival":"17:02:00","id":"M12N","lat":"40.70026","lon":"-73.941126","name":"Flushing Av"},{"arrival":"17:02:00","id":"L15N","lat":"40.706607","lon":"-73.922913","name":"Jefferson St"},{"arrival":"17:02:00","id":"106N","lat":"40.874561","lon":"-73.909831","name":"Marble Hill - 225 St"},{"arrival":"17:02:00","id":"A02S","lat":"40.868072","lon":"-73.919899","name":"Inwood - 207 St"},{"arrival":"17:02:00","id":"A43S","lat":"40.686113","lon":"-73.973946","name":"Lafayette Av"},{"arrival":"17:02:30","id":"A38S","lat":"40.710197","lon":"-74.007691","name":"Fulton St"},{"arrival":"17:02:30","id":"A38S","lat":"40.710197","lon":"-74.007691","name":"Fulton St"},{"arrival":"17:02:30","id":"110N","lat":"40.855225","lon":"-73.929412","name":"191 St"},{"arrival":"17:02:30","id":"R09S","lat":"40.750582","lon":"-73.940202","name":"Queensboro Plaza"},{"arrival":"17:02:30","id":"R09S","lat":"40.750582","lon":"-73.940202","name":"Queensboro Plaza"},{"arrival":"17:02:00","id":"R39N","lat":"40.648939","lon":"-74.010006","name":"45 St"},{"arrival":"17:02:00","id":"R39N","lat":"40.648939","lon":"-74.010006","name":"45 St"},{"arrival":"17:02:00","id":"R39N","lat":"40.648939","lon":"-74.010006","name":"45 St"},{"arrival":"17:02:00","id":"A43N","lat":"40.686113","lon":"-73.973946","name":"Lafayette Av"},{"arrival":"17:02:00","id":"L15S","lat":"40.706607","lon":"-73.922913","name":"Jefferson St"},{"arrival":"17:02:00","id":"G08N","lat":"40.721691","lon":"-73.844521","name":"Forest Hills - 71 Av"},{"arrival":"17:02:00","id":"G08N","lat":"40.721691","lon":"-73.844521","name":"Forest Hills - 71 Av"},{"arrival":"17:02:00","id":"A02N","lat":"40.868072","lon":"-73.919899","name":"Inwood - 207 St"},{"arrival":"17:02:00","id":"G05N","lat":"40.702147","lon":"-73.801109","name":"Jamaica Center - Parsons\/Archer"},{"arrival":"17:02:00","id":"635N","lat":"40.734673","lon":"-73.989951","name":"14 St - Union Sq"},{"arrival":"17:02:30","id":"635N","lat":"40.734673","lon":"-73.989951","name":"14 St - Union Sq"},{"arrival":"17:02:30","id":"G05S","lat":"40.702147","lon":"-73.801109","name":"Jamaica Center - Parsons\/Archer"},{"arrival":"17:02:00","id":"G12S","lat":"40.737015","lon":"-73.877223","name":"Grand Av - Newtown"},{"arrival":"17:02:00","id":"A44N","lat":"40.683263","lon":"-73.965838","name":"Clinton - Washington Avs"},{"arrival":"17:02:00","id":"G24N","lat":"40.744065","lon":"-73.949724","name":"21 St"},{"arrival":"17:02:30","id":"L08S","lat":"40.717304","lon":"-73.956872","name":"Bedford Av"},{"arrival":"17:02:30","id":"L08S","lat":"40.717304","lon":"-73.956872","name":"Bedford Av"},{"arrival":"17:02:30","id":"D19N","lat":"40.738228","lon":"-73.996209","name":"14 St"},{"arrival":"17:02:00","id":"L12N","lat":"40.711926","lon":"-73.94067","name":"Grand St"},{"arrival":"17:02:00","id":"236S","lat":"40.680829","lon":"-73.975098","name":"Bergen St"},{"arrival":"17:02:30","id":"639N","lat":"40.718803","lon":"-74.000193","name":"Canal St"},{"arrival":"17:02:30","id":"639N","lat":"40.718803","lon":"-74.000193","name":"Canal St"},{"arrival":"17:02:00","id":"504N","lat":"40.858985","lon":"-73.855359","name":"Pelham Pkwy"},{"arrival":"17:02:00","id":"504N","lat":"40.858985","lon":"-73.855359","name":"Pelham Pkwy"},{"arrival":"17:02:30","id":"236N","lat":"40.680829","lon":"-73.975098","name":"Bergen St"},{"arrival":"17:02:30","id":"224S","lat":"40.814229","lon":"-73.94077","name":"135 St"},{"arrival":"17:02:00","id":"721N","lat":"40.742626","lon":"-73.953581","name":"Vernon Blvd - Jackson Av"},{"arrival":"17:02:30","id":"120N","lat":"40.793919","lon":"-73.972323","name":"96 St"},{"arrival":"17:02:00","id":"120N","lat":"40.793919","lon":"-73.972323","name":"96 St"},{"arrival":"17:02:00","id":"F21N","lat":"40.680303","lon":"-73.995048","name":"Carroll St"},{"arrival":"17:02:00","id":"H04N","lat":"40.608382","lon":"-73.815925","name":"Broad Channel"},{"arrival":"17:02:30","id":"256S","lat":"40.665449","lon":"-73.889395","name":"Van Siclen Av"},{"arrival":"17:02:00","id":"120S","lat":"40.793919","lon":"-73.972323","name":"96 St"},{"arrival":"17:02:00","id":"120S","lat":"40.793919","lon":"-73.972323","name":"96 St"},{"arrival":"17:02:30","id":"A15S","lat":"40.811109","lon":"-73.952343","name":"125 St"},{"arrival":"17:02:00","id":"607S","lat":"40.834255","lon":"-73.851222","name":"Castle Hill Av"},{"arrival":"17:02:00","id":"607S","lat":"40.834255","lon":"-73.851222","name":"Castle Hill Av"},{"arrival":"17:02:30","id":"A15N","lat":"40.811109","lon":"-73.952343","name":"125 St"},{"arrival":"17:02:30","id":"D22N","lat":"40.718267","lon":"-73.993753","name":"Grand St"},{"arrival":"17:02:00","id":"Q01S","lat":"40.718383","lon":"-74.00046","name":"Canal St"},{"arrival":"17:02:00","id":"Q01S","lat":"40.718383","lon":"-74.00046","name":"Canal St"},{"arrival":"17:02:30","id":"710S","lat":"40.746848","lon":"-73.891394","name":"74 St - Broadway"},{"arrival":"17:02:30","id":"710S","lat":"40.746848","lon":"-73.891394","name":"74 St - Broadway"},{"arrival":"17:02:00","id":"617S","lat":"40.805368","lon":"-73.914042","name":"Cypress Av"},{"arrival":"17:02:00","id":"617S","lat":"40.805368","lon":"-73.914042","name":"Cypress Av"},{"arrival":"17:02:30","id":"J24S","lat":"40.676992","lon":"-73.898654","name":"Alabama Av"},{"arrival":"17:02:00","id":"R23N","lat":"40.719527","lon":"-74.001775","name":"Canal St"},{"arrival":"17:02:30","id":"A47N","lat":"40.679921","lon":"-73.940858","name":"Kingston - Throop Avs"},{"arrival":"17:02:30","id":"138N","lat":"40.711835","lon":"-74.012188","name":"Cortlandt St"},{"arrival":"17:02:00","id":"M08N","lat":"40.69943","lon":"-73.912385","name":"Myrtle - Wyckoff Avs"},{"arrival":"17:02:30","id":"D39N","lat":"40.586896","lon":"-73.954155","name":"Sheepshead Bay"},{"arrival":"17:02:30","id":"D39N","lat":"40.586896","lon":"-73.954155","name":"Sheepshead Bay"},{"arrival":"17:02:00","id":"L11N","lat":"40.714565","lon":"-73.944053","name":"Graham Av"},{"arrival":"17:02:00","id":"D15N","lat":"40.758663","lon":"-73.981329","name":"47-50 Sts - Rockefeller Ctr"},{"arrival":"17:02:00","id":"D01S","lat":"40.874811","lon":"-73.878855","name":"Norwood - 205 St"},{"arrival":"17:02:30","id":"L05S","lat":"40.732849","lon":"-73.986122","name":"3 Av"},{"arrival":"17:02:00","id":"J28S","lat":"40.682893","lon":"-73.910456","name":"Chauncey St"},{"arrival":"17:02:30","id":"A18N","lat":"40.796092","lon":"-73.961454","name":"103 St"},{"arrival":"17:02:30","id":"A60S","lat":"40.679843","lon":"-73.85147","name":"88 St"},{"arrival":"17:02:30","id":"408S","lat":"40.858407","lon":"-73.903879","name":"183 St"},{"arrival":"17:02:00","id":"630N","lat":"40.757107","lon":"-73.97192","name":"51 St"},{"arrival":"17:02:00","id":"241N","lat":"40.667883","lon":"-73.950683","name":"President St"},{"arrival":"17:02:00","id":"241N","lat":"40.667883","lon":"-73.950683","name":"President St"},{"arrival":"17:02:30","id":"133S","lat":"40.733422","lon":"-74.002906","name":"Christopher St - Sheridan Sq"},{"arrival":"17:02:30","id":"J23S","lat":"40.678024","lon":"-73.891688","name":"Van Siclen Av"},{"arrival":"17:02:30","id":"133N","lat":"40.733422","lon":"-74.002906","name":"Christopher St - Sheridan Sq"},{"arrival":"17:02:30","id":"A28S","lat":"40.752287","lon":"-73.993391","name":"34 St - Penn Station"},{"arrival":"17:02:30","id":"A28S","lat":"40.752287","lon":"-73.993391","name":"34 St - Penn Station"},{"arrival":"17:02:00","id":"F04S","lat":"40.70546","lon":"-73.810708","name":"Sutphin Blvd"},{"arrival":"17:02:00","id":"A32S","lat":"40.732338","lon":"-74.000495","name":"W 4 St"},{"arrival":"17:02:00","id":"A32S","lat":"40.732338","lon":"-74.000495","name":"W 4 St"},{"arrival":"17:02:30","id":"F04N","lat":"40.70546","lon":"-73.810708","name":"Sutphin Blvd"},{"arrival":"17:02:00","id":"D07S","lat":"40.85041","lon":"-73.905227","name":"Tremont Av"},{"arrival":"17:02:30","id":"A28N","lat":"40.752287","lon":"-73.993391","name":"34 St - Penn Station"},{"arrival":"17:02:00","id":"D17N","lat":"40.749719","lon":"-73.987823","name":"34 St - Herald Sq"},{"arrival":"17:02:00","id":"D17N","lat":"40.749719","lon":"-73.987823","name":"34 St - Herald Sq"},{"arrival":"17:02:30","id":"D17N","lat":"40.749719","lon":"-73.987823","name":"34 St - Herald Sq"},{"arrival":"17:02:00","id":"R17S","lat":"40.749567","lon":"-73.98795","name":"34 St - Herald Sq"},{"arrival":"17:02:00","id":"R17S","lat":"40.749567","lon":"-73.98795","name":"34 St - Herald Sq"},{"arrival":"17:02:30","id":"R17S","lat":"40.749567","lon":"-73.98795","name":"34 St - Herald Sq"},{"arrival":"17:02:30","id":"R17S","lat":"40.749567","lon":"-73.98795","name":"34 St - Herald Sq"},{"arrival":"17:02:30","id":"D38S","lat":"40.595246","lon":"-73.955161","name":"Neck Rd"},{"arrival":"17:02:30","id":"D38S","lat":"40.595246","lon":"-73.955161","name":"Neck Rd"},{"arrival":"17:02:00","id":"D38S","lat":"40.595246","lon":"-73.955161","name":"Neck Rd"},{"arrival":"17:02:30","id":"L13S","lat":"40.707739","lon":"-73.93985","name":"Montrose Av"},{"arrival":"17:02:00","id":"F16S","lat":"40.713715","lon":"-73.990173","name":"East Broadway"},{"arrival":"17:02:30","id":"632S","lat":"40.746081","lon":"-73.982076","name":"33 St"},{"arrival":"17:02:30","id":"632S","lat":"40.746081","lon":"-73.982076","name":"33 St"},{"arrival":"17:02:30","id":"254N","lat":"40.663515","lon":"-73.902447","name":"Junius St"},{"arrival":"17:02:00","id":"F23N","lat":"40.670272","lon":"-73.989779","name":"4 Av"},{"arrival":"17:02:30","id":"F23N","lat":"40.670272","lon":"-73.989779","name":"4 Av"},{"arrival":"17:02:00","id":"N05N","lat":"40.620671","lon":"-73.990414","name":"18 Av"},{"arrival":"17:02:00","id":"N05N","lat":"40.620671","lon":"-73.990414","name":"18 Av"},{"arrival":"17:02:30","id":"H11S","lat":"40.603995","lon":"-73.755405","name":"Far Rockaway - Mott Av"},{"arrival":"17:02:00","id":"109S","lat":"40.860531","lon":"-73.925536","name":"Dyckman St"},{"arrival":"17:02:00","id":"F12S","lat":"40.760167","lon":"-73.975224","name":"5 Av\/53 St"},{"arrival":"17:02:00","id":"125N","lat":"40.768247","lon":"-73.981929","name":"59 St - Columbus Circle"},{"arrival":"17:02:30","id":"626S","lat":"40.779492","lon":"-73.955589","name":"86 St"},{"arrival":"17:02:30","id":"F16N","lat":"40.713715","lon":"-73.990173","name":"East Broadway"},{"arrival":"17:02:00","id":"A14S","lat":"40.817894","lon":"-73.947649","name":"135 St"},{"arrival":"17:02:00","id":"626N","lat":"40.779492","lon":"-73.955589","name":"86 St"},{"arrival":"17:02:00","id":"713S","lat":"40.744149","lon":"-73.912549","name":"52 St"},{"arrival":"17:02:30","id":"405S","lat":"40.873412","lon":"-73.890064","name":"Bedford Park Blvd - Lehman College"},{"arrival":"17:02:00","id":"S17S","lat":"40.54046","lon":"-74.178217","name":"Annadale"},{"arrival":"17:02:30","id":"L22S","lat":"40.678856","lon":"-73.90324","name":"Broadway Jct"},{"arrival":"17:02:00","id":"L22S","lat":"40.678856","lon":"-73.90324","name":"Broadway Jct"},{"arrival":"17:02:00","id":"R22N","lat":"40.724329","lon":"-73.997702","name":"Prince St"},{"arrival":"17:02:00","id":"R22N","lat":"40.724329","lon":"-73.997702","name":"Prince St"},{"arrival":"17:02:00","id":"L22N","lat":"40.678856","lon":"-73.90324","name":"Broadway Jct"},{"arrival":"17:02:00","id":"405N","lat":"40.873412","lon":"-73.890064","name":"Bedford Park Blvd - Lehman College"},{"arrival":"17:02:00","id":"405N","lat":"40.873412","lon":"-73.890064","name":"Bedford Park Blvd - Lehman College"},{"arrival":"17:02:30","id":"621N","lat":"40.804138","lon":"-73.937594","name":"125 St"},{"arrival":"17:02:00","id":"621N","lat":"40.804138","lon":"-73.937594","name":"125 St"},{"arrival":"17:02:00","id":"621N","lat":"40.804138","lon":"-73.937594","name":"125 St"},{"arrival":"17:02:00","id":"621N","lat":"40.804138","lon":"-73.937594","name":"125 St"},{"arrival":"17:02:30","id":"R08N","lat":"40.752882","lon":"-73.932755","name":"39 Av"},{"arrival":"17:02:00","id":"621S","lat":"40.804138","lon":"-73.937594","name":"125 St"},{"arrival":"17:02:30","id":"621S","lat":"40.804138","lon":"-73.937594","name":"125 St"},{"arrival":"17:02:00","id":"117S","lat":"40.807722","lon":"-73.96411","name":"116 St - Columbia University"},{"arrival":"17:02:00","id":"F27S","lat":"40.644041","lon":"-73.979678","name":"Church Av"},{"arrival":"17:02:00","id":"R31S","lat":"40.683666","lon":"-73.97881","name":"Atlantic Av - Barclays Ctr"},{"arrival":"17:02:00","id":"R31S","lat":"40.683666","lon":"-73.97881","name":"Atlantic Av - Barclays Ctr"},{"arrival":"17:02:30","id":"R31S","lat":"40.683666","lon":"-73.97881","name":"Atlantic Av - Barclays Ctr"},{"arrival":"17:02:30","id":"D21N","lat":"40.725297","lon":"-73.996204","name":"Broadway-Lafayette St"},{"arrival":"17:02:00","id":"D21S","lat":"40.725297","lon":"-73.996204","name":"Broadway-Lafayette St"},{"arrival":"17:02:30","id":"J22N","lat":"40.679947","lon":"-73.884639","name":"Cleveland St"},{"arrival":"17:02:30","id":"419S","lat":"40.707557","lon":"-74.011862","name":"Wall St"},{"arrival":"17:02:00","id":"419S","lat":"40.707557","lon":"-74.011862","name":"Wall St"},{"arrival":"17:02:00","id":"419S","lat":"40.707557","lon":"-74.011862","name":"Wall St"},{"arrival":"17:02:00","id":"423N","lat":"40.692404","lon":"-73.990151","name":"Borough Hall"},{"arrival":"17:02:00","id":"423N","lat":"40.692404","lon":"-73.990151","name":"Borough Hall"},{"arrival":"17:02:30","id":"D16S","lat":"40.754222","lon":"-73.984569","name":"42 St - Bryant Pk"},{"arrival":"17:02:30","id":"D16S","lat":"40.754222","lon":"-73.984569","name":"42 St - Bryant Pk"},{"arrival":"17:02:00","id":"J31S","lat":"40.693342","lon":"-73.928814","name":"Kosciusko St"},{"arrival":"17:02:30","id":"A24N","lat":"40.768296","lon":"-73.981736","name":"59 St - Columbus Circle"},{"arrival":"17:02:00","id":"A24N","lat":"40.768296","lon":"-73.981736","name":"59 St - Columbus Circle"},{"arrival":"17:02:00","id":"631S","lat":"40.751776","lon":"-73.976848","name":"Grand Central - 42 St"},{"arrival":"17:02:00","id":"631S","lat":"40.751776","lon":"-73.976848","name":"Grand Central - 42 St"},{"arrival":"17:02:00","id":"128N","lat":"40.750373","lon":"-73.991057","name":"34 St - Penn Station"},{"arrival":"17:02:00","id":"128N","lat":"40.750373","lon":"-73.991057","name":"34 St - Penn Station"},{"arrival":"17:02:30","id":"128S","lat":"40.750373","lon":"-73.991057","name":"34 St - Penn Station"},{"arrival":"17:02:30","id":"A24S","lat":"40.768296","lon":"-73.981736","name":"59 St - Columbus Circle"},{"arrival":"17:02:30","id":"423S","lat":"40.692404","lon":"-73.990151","name":"Borough Hall"},{"arrival":"17:02:30","id":"A36S","lat":"40.714111","lon":"-74.008585","name":"Chambers St"},{"arrival":"17:02:30","id":"A36S","lat":"40.714111","lon":"-74.008585","name":"Chambers St"},{"arrival":"17:02:00","id":"F01N","lat":"40.712646","lon":"-73.783817","name":"Jamaica - 179 St"},{"arrival":"17:02:30","id":"F01N","lat":"40.712646","lon":"-73.783817","name":"Jamaica - 179 St"},{"arrival":"17:02:00","id":"R03N","lat":"40.770258","lon":"-73.917843","name":"Astoria Blvd"},{"arrival":"17:02:00","id":"A36N","lat":"40.714111","lon":"-74.008585","name":"Chambers St"},{"arrival":"17:02:30","id":"A36N","lat":"40.714111","lon":"-74.008585","name":"Chambers St"},{"arrival":"17:02:00","id":"132N","lat":"40.737826","lon":"-74.000201","name":"14 St"},{"arrival":"17:02:30","id":"640S","lat":"40.713065","lon":"-74.004131","name":"Brooklyn Bridge - City Hall"},{"arrival":"17:02:30","id":"B12S","lat":"40.646292","lon":"-73.994324","name":"9 Av"},{"arrival":"17:02:30","id":"B12S","lat":"40.646292","lon":"-73.994324","name":"9 Av"},{"arrival":"17:02:00","id":"L01N","lat":"40.739777","lon":"-74.002578","name":"8 Av"},{"arrival":"17:02:30","id":"505S","lat":"40.854364","lon":"-73.860495","name":"Morris Park"},{"arrival":"17:02:30","id":"505S","lat":"40.854364","lon":"-73.860495","name":"Morris Park"},{"arrival":"17:02:00","id":"G33S","lat":"40.689627","lon":"-73.953522","name":"Bedford - Nostrand Avs"},{"arrival":"17:02:00","id":"M14S","lat":"40.70687","lon":"-73.953431","name":"Hewes St"},{"arrival":"17:02:30","id":"M14S","lat":"40.70687","lon":"-73.953431","name":"Hewes St"},{"arrival":"17:02:00","id":"718N","lat":"40.750582","lon":"-73.940202","name":"Queensboro Plaza"},{"arrival":"17:02:30","id":"402S","lat":"40.87975","lon":"-73.884655","name":"Mosholu Pkwy"},{"arrival":"17:02:30","id":"402S","lat":"40.87975","lon":"-73.884655","name":"Mosholu Pkwy"},{"arrival":"17:02:00","id":"B12N","lat":"40.646292","lon":"-73.994324","name":"9 Av"},{"arrival":"17:02:30","id":"237N","lat":"40.675235","lon":"-73.971046","name":"Grand Army Plaza"},{"arrival":"17:02:30","id":"237N","lat":"40.675235","lon":"-73.971046","name":"Grand Army Plaza"},{"arrival":"17:02:30","id":"237N","lat":"40.675235","lon":"-73.971046","name":"Grand Army Plaza"},{"arrival":"17:02:30","id":"608N","lat":"40.833226","lon":"-73.860816","name":"Parkchester"},{"arrival":"17:02:00","id":"257N","lat":"40.666235","lon":"-73.884079","name":"New Lots Av"},{"arrival":"17:02:30","id":"F24N","lat":"40.666271","lon":"-73.980305","name":"7 Av"},{"arrival":"17:02:30","id":"F24N","lat":"40.666271","lon":"-73.980305","name":"7 Av"},{"arrival":"17:02:00","id":"F24S","lat":"40.666271","lon":"-73.980305","name":"7 Av"},{"arrival":"17:02:00","id":"A59S","lat":"40.679371","lon":"-73.858992","name":"80 St"},{"arrival":"17:02:00","id":"114N","lat":"40.826551","lon":"-73.95036","name":"145 St"},{"arrival":"17:02:00","id":"902S","lat":"40.755983","lon":"-73.986229","name":"Times Sq - 42 St"},{"arrival":"17:02:30","id":"D31S","lat":"40.635082","lon":"-73.962793","name":"Newkirk Av"},{"arrival":"17:02:30","id":"D31S","lat":"40.635082","lon":"-73.962793","name":"Newkirk Av"},{"arrival":"17:02:30","id":"R29N","lat":"40.69218","lon":"-73.985942","name":"Jay St - MetroTech"},{"arrival":"17:02:00","id":"G06N","lat":"40.700486","lon":"-73.807969","name":"Sutphin Blvd - Archer Av - JFK Airport"},{"arrival":"17:02:30","id":"902N","lat":"40.755983","lon":"-73.986229","name":"Times Sq - 42 St"},{"arrival":"17:02:00","id":"114S","lat":"40.826551","lon":"-73.95036","name":"145 St"},{"arrival":"17:02:30","id":"114S","lat":"40.826551","lon":"-73.95036","name":"145 St"},{"arrival":"17:02:00","id":"215N","lat":"40.837288","lon":"-73.887734","name":"174 St"},{"arrival":"17:02:00","id":"215N","lat":"40.837288","lon":"-73.887734","name":"174 St"},{"arrival":"17:02:00","id":"D26N","lat":"40.661614","lon":"-73.962246","name":"Prospect Park"},{"arrival":"17:02:30","id":"F34N","lat":"40.608944","lon":"-73.973022","name":"Avenue P"},{"arrival":"17:02:30","id":"A40N","lat":"40.699337","lon":"-73.990531","name":"High St"},{"arrival":"17:02:30","id":"H07N","lat":"40.592374","lon":"-73.788522","name":"Beach 60 St"},{"arrival":"17:02:30","id":"D43S","lat":"40.577422","lon":"-73.981233","name":"Coney Island - Stillwell Av"},{"arrival":"17:02:30","id":"D43S","lat":"40.577422","lon":"-73.981233","name":"Coney Island - Stillwell Av"},{"arrival":"17:02:30","id":"103S","lat":"40.884667","lon":"-73.90087","name":"238 St"},{"arrival":"17:02:00","id":"718S","lat":"40.750582","lon":"-73.940202","name":"Queensboro Plaza"},{"arrival":"17:02:00","id":"718S","lat":"40.750582","lon":"-73.940202","name":"Queensboro Plaza"},{"arrival":"17:02:00","id":"G36N","lat":"40.687119","lon":"-73.975375","name":"Fulton St"},{"arrival":"17:02:30","id":"A40S","lat":"40.699337","lon":"-73.990531","name":"High St"},{"arrival":"17:02:30","id":"113S","lat":"40.834041","lon":"-73.94489","name":"157 St"},{"arrival":"17:02:00","id":"R04N","lat":"40.766779","lon":"-73.921479","name":"30 Av"},{"arrival":"17:02:00","id":"R04N","lat":"40.766779","lon":"-73.921479","name":"30 Av"},{"arrival":"17:02:00","id":"M18N","lat":"40.718315","lon":"-73.987437","name":"Essex St"},{"arrival":"17:02:30","id":"L03N","lat":"40.734789","lon":"-73.99073","name":"Union Sq - 14 St"},{"arrival":"17:02:00","id":"A12N","lat":"40.824783","lon":"-73.944216","name":"145 St"},{"arrival":"17:02:00","id":"116N","lat":"40.815581","lon":"-73.958372","name":"125 St"},{"arrival":"17:02:00","id":"302S","lat":"40.820421","lon":"-73.936245","name":"145 St"},{"arrival":"17:02:30","id":"213S","lat":"40.841894","lon":"-73.873488","name":"E 180 St"},{"arrival":"17:02:00","id":"J16S","lat":"40.692435","lon":"-73.86001","name":"85 St - Forest Pkwy"},{"arrival":"17:02:00","id":"M18S","lat":"40.718315","lon":"-73.987437","name":"Essex St"},{"arrival":"17:02:30","id":"A12S","lat":"40.824783","lon":"-73.944216","name":"145 St"},{"arrival":"17:02:30","id":"A12S","lat":"40.824783","lon":"-73.944216","name":"145 St"},{"arrival":"17:02:30","id":"L03S","lat":"40.734789","lon":"-73.99073","name":"Union Sq - 14 St"},{"arrival":"17:02:30","id":"L03S","lat":"40.734789","lon":"-73.99073","name":"Union Sq - 14 St"},{"arrival":"17:02:00","id":"R36S","lat":"40.655144","lon":"-74.003549","name":"36 St"},{"arrival":"17:02:00","id":"M21N","lat":"40.713243","lon":"-74.003401","name":"Chambers St"},{"arrival":"17:02:30","id":"227N","lat":"40.799075","lon":"-73.951822","name":"Central Park North (110 St)"},{"arrival":"17:02:00","id":"227N","lat":"40.799075","lon":"-73.951822","name":"Central Park North (110 St)"},{"arrival":"17:02:00","id":"227N","lat":"40.799075","lon":"-73.951822","name":"Central Park North (110 St)"},{"arrival":"17:02:30","id":"D06N","lat":"40.856093","lon":"-73.900741","name":"182-183 Sts"},{"arrival":"17:02:30","id":"D06N","lat":"40.856093","lon":"-73.900741","name":"182-183 Sts"},{"arrival":"17:02:00","id":"D14S","lat":"40.762862","lon":"-73.981637","name":"7 Av"},{"arrival":"17:02:00","id":"701S","lat":"40.7596","lon":"-73.83003","name":"Flushing - Main St"},{"arrival":"17:02:30","id":"701S","lat":"40.7596","lon":"-73.83003","name":"Flushing - Main St"},{"arrival":"17:02:00","id":"F03S","lat":"40.707564","lon":"-73.803326","name":"Parsons Blvd"},{"arrival":"17:02:30","id":"L10N","lat":"40.714063","lon":"-73.950275","name":"Lorimer St"},{"arrival":"17:02:30","id":"D06S","lat":"40.856093","lon":"-73.900741","name":"182-183 Sts"},{"arrival":"17:02:00","id":"D14N","lat":"40.762862","lon":"-73.981637","name":"7 Av"},{"arrival":"17:02:00","id":"J29S","lat":"40.68637","lon":"-73.916559","name":"Halsey St"},{"arrival":"17:02:00","id":"R18S","lat":"40.745494","lon":"-73.988691","name":"28 St"},{"arrival":"17:02:00","id":"A51N","lat":"40.678334","lon":"-73.905316","name":"Broadway Jct"},{"arrival":"17:02:30","id":"A51N","lat":"40.678334","lon":"-73.905316","name":"Broadway Jct"},{"arrival":"17:02:00","id":"A51N","lat":"40.678334","lon":"-73.905316","name":"Broadway Jct"},{"arrival":"17:02:00","id":"R18N","lat":"40.745494","lon":"-73.988691","name":"28 St"},{"arrival":"17:02:30","id":"R18N","lat":"40.745494","lon":"-73.988691","name":"28 St"},{"arrival":"17:02:30","id":"R18N","lat":"40.745494","lon":"-73.988691","name":"28 St"},{"arrival":"17:02:00","id":"226S","lat":"40.802098","lon":"-73.949625","name":"116 St"},{"arrival":"17:02:30","id":"226S","lat":"40.802098","lon":"-73.949625","name":"116 St"},{"arrival":"17:02:00","id":"226S","lat":"40.802098","lon":"-73.949625","name":"116 St"},{"arrival":"17:02:00","id":"637N","lat":"40.725915","lon":"-73.994659","name":"Bleecker St"},{"arrival":"17:02:30","id":"234S","lat":"40.688246","lon":"-73.980492","name":"Nevins St"},{"arrival":"17:02:00","id":"234N","lat":"40.688246","lon":"-73.980492","name":"Nevins St"},{"arrival":"17:02:00","id":"234N","lat":"40.688246","lon":"-73.980492","name":"Nevins St"},{"arrival":"17:02:30","id":"723N","lat":"40.751431","lon":"-73.976041","name":"Grand Central - 42 St"},{"arrival":"17:02:00","id":"126N","lat":"40.761728","lon":"-73.983849","name":"50 St"},{"arrival":"17:02:00","id":"126N","lat":"40.761728","lon":"-73.983849","name":"50 St"},{"arrival":"17:02:30","id":"H02S","lat":"40.668234","lon":"-73.834058","name":"Aqueduct - N Conduit Av"},{"arrival":"17:02:30","id":"250N","lat":"40.668897","lon":"-73.932942","name":"Crown Hts - Utica Av"},{"arrival":"17:02:00","id":"250N","lat":"40.668897","lon":"-73.932942","name":"Crown Hts - Utica Av"},{"arrival":"17:02:00","id":"134S","lat":"40.728251","lon":"-74.005367","name":"Houston St"},{"arrival":"17:02:30","id":"J22S","lat":"40.679947","lon":"-73.884639","name":"Cleveland St"},{"arrival":"17:02:30","id":"708S","lat":"40.748408","lon":"-73.876613","name":"90 St - Elmhurst Av"},{"arrival":"17:02:00","id":"708S","lat":"40.748408","lon":"-73.876613","name":"90 St - Elmhurst Av"},{"arrival":"17:02:00","id":"629S","lat":"40.762526","lon":"-73.967967","name":"59 St"},{"arrival":"17:02:00","id":"629S","lat":"40.762526","lon":"-73.967967","name":"59 St"},{"arrival":"17:02:30","id":"G29N","lat":"40.712792","lon":"-73.951418","name":"Metropolitan Av"},{"arrival":"17:02:30","id":"724S","lat":"40.753821","lon":"-73.981963","name":"5 Av"},{"arrival":"17:02:30","id":"629N","lat":"40.762526","lon":"-73.967967","name":"59 St"},{"arrival":"17:02:00","id":"611N","lat":"40.828584","lon":"-73.879159","name":"Elder Av"},{"arrival":"17:02:00","id":"S22N","lat":"40.57348","lon":"-74.11721","name":"New Dorp"},{"arrival":"17:02:30","id":"618N","lat":"40.807566","lon":"-73.91924","name":"Brook Av"},{"arrival":"17:02:00","id":"229S","lat":"40.709416","lon":"-74.006571","name":"Fulton St"},{"arrival":"17:02:30","id":"229S","lat":"40.709416","lon":"-74.006571","name":"Fulton St"},{"arrival":"17:02:00","id":"229S","lat":"40.709416","lon":"-74.006571","name":"Fulton St"},{"arrival":"17:02:00","id":"229N","lat":"40.709416","lon":"-74.006571","name":"Fulton St"},{"arrival":"17:02:30","id":"A41S","lat":"40.692338","lon":"-73.987342","name":"Jay St - MetroTech"},{"arrival":"17:02:30","id":"A41S","lat":"40.692338","lon":"-73.987342","name":"Jay St - MetroTech"},{"arrival":"17:02:00","id":"A41S","lat":"40.692338","lon":"-73.987342","name":"Jay St - MetroTech"},{"arrival":"17:02:30","id":"A41S","lat":"40.692338","lon":"-73.987342","name":"Jay St - MetroTech"},{"arrival":"17:02:00","id":"G35S","lat":"40.688089","lon":"-73.966839","name":"Clinton - Washington Avs"},{"arrival":"17:02:30","id":"G35N","lat":"40.688089","lon":"-73.966839","name":"Clinton - Washington Avs"},{"arrival":"17:02:00","id":"D03N","lat":"40.873244","lon":"-73.887138","name":"Bedford Park Blvd"},{"arrival":"17:02:00","id":"A55S","lat":"40.675377","lon":"-73.872106","name":"Euclid Av"},{"arrival":"17:02:30","id":"A55S","lat":"40.675377","lon":"-73.872106","name":"Euclid Av"},{"arrival":"17:02:30","id":"A55S","lat":"40.675377","lon":"-73.872106","name":"Euclid Av"},{"arrival":"17:02:30","id":"H06S","lat":"40.590927","lon":"-73.796924","name":"Beach 67 St"},{"arrival":"17:02:30","id":"A41N","lat":"40.692338","lon":"-73.987342","name":"Jay St - MetroTech"},{"arrival":"17:02:30","id":"A41N","lat":"40.692338","lon":"-73.987342","name":"Jay St - MetroTech"},{"arrival":"17:02:30","id":"A41N","lat":"40.692338","lon":"-73.987342","name":"Jay St - MetroTech"},{"arrival":"17:02:30","id":"L24S","lat":"40.675345","lon":"-73.903097","name":"Atlantic Av"},{"arrival":"17:02:30","id":"112S","lat":"40.840556","lon":"-73.940133","name":"168 St - Washington Hts"},{"arrival":"17:02:00","id":"D08S","lat":"40.8459","lon":"-73.910136","name":"174-175 Sts"},{"arrival":"17:02:30","id":"705S","lat":"40.75173","lon":"-73.855334","name":"111 St"},{"arrival":"17:02:30","id":"F07S","lat":"40.718331","lon":"-73.837324","name":"75 Av"},{"arrival":"17:02:00","id":"A03N","lat":"40.865491","lon":"-73.927271","name":"Dyckman St"},{"arrival":"17:02:00","id":"G10S","lat":"40.729846","lon":"-73.861604","name":"63 Dr - Rego Park"},{"arrival":"17:02:00","id":"G10S","lat":"40.729846","lon":"-73.861604","name":"63 Dr - Rego Park"},{"arrival":"17:02:00","id":"A25N","lat":"40.762456","lon":"-73.985984","name":"50 St"},{"arrival":"17:02:00","id":"129N","lat":"40.747215","lon":"-73.993365","name":"28 St"},{"arrival":"17:02:00","id":"129S","lat":"40.747215","lon":"-73.993365","name":"28 St"},{"arrival":"17:02:00","id":"129S","lat":"40.747215","lon":"-73.993365","name":"28 St"},{"arrival":"17:02:30","id":"246N","lat":"40.639967","lon":"-73.948411","name":"Newkirk Av"},{"arrival":"17:02:00","id":"F07N","lat":"40.718331","lon":"-73.837324","name":"75 Av"},{"arrival":"17:02:00","id":"F07N","lat":"40.718331","lon":"-73.837324","name":"75 Av"},{"arrival":"17:02:30","id":"705N","lat":"40.75173","lon":"-73.855334","name":"111 St"},{"arrival":"17:02:30","id":"R14N","lat":"40.764664","lon":"-73.980658","name":"57 St - 7 Av"},{"arrival":"17:02:00","id":"G19N","lat":"40.756879","lon":"-73.92074","name":"Steinway St"},{"arrival":"17:02:00","id":"M11S","lat":"40.697207","lon":"-73.935657","name":"Myrtle Av"},{"arrival":"17:02:30","id":"G21N","lat":"40.748973","lon":"-73.937243","name":"Queens Plaza"},{"arrival":"17:02:00","id":"A31N","lat":"40.740893","lon":"-74.00169","name":"14 St"},{"arrival":"17:02:30","id":"G19S","lat":"40.756879","lon":"-73.92074","name":"Steinway St"},{"arrival":"17:02:00","id":"119S","lat":"40.799446","lon":"-73.968379","name":"103 St"},{"arrival":"17:02:30","id":"415N","lat":"40.818375","lon":"-73.927351","name":"149 St - Grand Concourse"},{"arrival":"17:02:30","id":"415N","lat":"40.818375","lon":"-73.927351","name":"149 St - Grand Concourse"},{"arrival":"17:02:00","id":"415S","lat":"40.818375","lon":"-73.927351","name":"149 St - Grand Concourse"},{"arrival":"17:02:30","id":"230N","lat":"40.706821","lon":"-74.0091","name":"Wall St"},{"arrival":"17:02:30","id":"230N","lat":"40.706821","lon":"-74.0091","name":"Wall St"},{"arrival":"17:02:30","id":"416N","lat":"40.813224","lon":"-73.929849","name":"138 St - Grand Concourse"},{"arrival":"17:02:30","id":"B16N","lat":"40.626472","lon":"-73.996895","name":"62 St"},{"arrival":"17:02:30","id":"401N","lat":"40.886037","lon":"-73.878751","name":"Woodlawn"},{"arrival":"17:02:30","id":"122S","lat":"40.783934","lon":"-73.979917","name":"79 St"},{"arrival":"17:02:30","id":"H08N","lat":"40.592943","lon":"-73.776013","name":"Beach 44 St"},{"arrival":"17:02:00","id":"709N","lat":"40.747659","lon":"-73.883697","name":"82 St - Jackson Hts"},{"arrival":"17:02:00","id":"501S","lat":"40.8883","lon":"-73.830834","name":"Eastchester - Dyre Av"},{"arrival":"17:02:00","id":"F23S","lat":"40.670272","lon":"-73.989779","name":"4 Av"},{"arrival":"17:02:00","id":"S09S","lat":"40.512764","lon":"-74.251961","name":"Tottenville"},{"arrival":"17:02:00","id":"A07N","lat":"40.847391","lon":"-73.939704","name":"175 St"},{"arrival":"17:02:00","id":"216N","lat":"40.829993","lon":"-73.891865","name":"Freeman St"},{"arrival":"17:02:00","id":"216N","lat":"40.829993","lon":"-73.891865","name":"Freeman St"},{"arrival":"17:02:30","id":"625S","lat":"40.785672","lon":"-73.95107","name":"96 St"},{"arrival":"17:02:30","id":"L19N","lat":"40.695602","lon":"-73.904084","name":"Halsey St"},{"arrival":"17:02:30","id":"L19N","lat":"40.695602","lon":"-73.904084","name":"Halsey St"},{"arrival":"17:02:00","id":"412S","lat":"40.840075","lon":"-73.917791","name":"170 St"},{"arrival":"17:02:30","id":"239S","lat":"40.670682","lon":"-73.958131","name":"Franklin Av"},{"arrival":"17:02:30","id":"239N","lat":"40.670682","lon":"-73.958131","name":"Franklin Av"},{"arrival":"17:02:30","id":"412N","lat":"40.840075","lon":"-73.917791","name":"170 St"},{"arrival":"17:02:30","id":"412N","lat":"40.840075","lon":"-73.917791","name":"170 St"},{"arrival":"17:02:00","id":"715N","lat":"40.743781","lon":"-73.924016","name":"40 St"},{"arrival":"17:02:00","id":"232N","lat":"40.693219","lon":"-73.989998","name":"Borough Hall"},{"arrival":"17:02:30","id":"725N","lat":"40.755477","lon":"-73.987691","name":"Times Sq - 42 St"},{"arrival":"17:02:00","id":"725N","lat":"40.755477","lon":"-73.987691","name":"Times Sq - 42 St"},{"arrival":"17:02:30","id":"628S","lat":"40.768141","lon":"-73.96387","name":"68 St - Hunter College"},{"arrival":"17:02:30","id":"228N","lat":"40.713051","lon":"-74.008811","name":"Park Pl"},{"arrival":"17:02:00","id":"628N","lat":"40.768141","lon":"-73.96387","name":"68 St - Hunter College"},{"arrival":"17:02:00","id":"725S","lat":"40.755477","lon":"-73.987691","name":"Times Sq - 42 St"},{"arrival":"17:02:30","id":"725S","lat":"40.755477","lon":"-73.987691","name":"Times Sq - 42 St"},{"arrival":"17:02:30","id":"232S","lat":"40.693219","lon":"-73.989998","name":"Borough Hall"},{"arrival":"17:02:00","id":"619N","lat":"40.810476","lon":"-73.926138","name":"3 Av - 138 St"},{"arrival":"17:02:30","id":"619S","lat":"40.810476","lon":"-73.926138","name":"3 Av - 138 St"},{"arrival":"17:02:00","id":"115N","lat":"40.822008","lon":"-73.953676","name":"137 St - City College"},{"arrival":"17:02:30","id":"A11S","lat":"40.830518","lon":"-73.941514","name":"155 St"},{"arrival":"17:02:00","id":"901S","lat":"40.752769","lon":"-73.979189","name":"Grand Central - 42 St"},{"arrival":"17:02:30","id":"A05N","lat":"40.859022","lon":"-73.93418","name":"190 St"},{"arrival":"17:02:30","id":"623S","lat":"40.79502","lon":"-73.94425","name":"110 St"},{"arrival":"17:02:30","id":"623S","lat":"40.79502","lon":"-73.94425","name":"110 St"},{"arrival":"17:02:30","id":"A59N","lat":"40.679371","lon":"-73.858992","name":"80 St"},{"arrival":"17:02:30","id":"D42N","lat":"40.576127","lon":"-73.975939","name":"W 8 St - NY Aquarium"},{"arrival":"17:02:00","id":"231S","lat":"40.697466","lon":"-73.993086","name":"Clark St"},{"arrival":"17:02:00","id":"231S","lat":"40.697466","lon":"-73.993086","name":"Clark St"},{"arrival":"17:02:00","id":"A30N","lat":"40.745906","lon":"-73.998041","name":"23 St"},{"arrival":"17:02:00","id":"A30S","lat":"40.745906","lon":"-73.998041","name":"23 St"},{"arrival":"17:02:00","id":"A30S","lat":"40.745906","lon":"-73.998041","name":"23 St"},{"arrival":"17:02:30","id":"A30S","lat":"40.745906","lon":"-73.998041","name":"23 St"},{"arrival":"17:02:00","id":"G13N","lat":"40.742454","lon":"-73.882017","name":"Elmhurst Av"},{"arrival":"17:02:30","id":"225N","lat":"40.807754","lon":"-73.945495","name":"125 St"},{"arrival":"17:02:30","id":"L17S","lat":"40.699814","lon":"-73.911586","name":"Myrtle - Wyckoff Avs"},{"arrival":"17:02:30","id":"R15S","lat":"40.759901","lon":"-73.984139","name":"49 St"},{"arrival":"17:02:30","id":"R15S","lat":"40.759901","lon":"-73.984139","name":"49 St"},{"arrival":"17:02:30","id":"G18N","lat":"40.756312","lon":"-73.913333","name":"46 St"},{"arrival":"17:02:00","id":"F38S","lat":"40.58962","lon":"-73.97425","name":"Avenue X"},{"arrival":"17:02:30","id":"F38S","lat":"40.58962","lon":"-73.97425","name":"Avenue X"},{"arrival":"17:02:30","id":"D18N","lat":"40.742878","lon":"-73.992821","name":"23 St"},{"arrival":"17:02:30","id":"G18S","lat":"40.756312","lon":"-73.913333","name":"46 St"},{"arrival":"17:02:30","id":"G18S","lat":"40.756312","lon":"-73.913333","name":"46 St"},{"arrival":"17:02:30","id":"R15N","lat":"40.759901","lon":"-73.984139","name":"49 St"},{"arrival":"17:02:30","id":"R15N","lat":"40.759901","lon":"-73.984139","name":"49 St"},{"arrival":"17:02:30","id":"R15N","lat":"40.759901","lon":"-73.984139","name":"49 St"},{"arrival":"17:02:30","id":"N07N","lat":"40.611815","lon":"-73.981848","name":"Bay Pkwy"},{"arrival":"17:02:00","id":"221S","lat":"40.816109","lon":"-73.917757","name":"3 Av - 149 St"},{"arrival":"17:02:30","id":"235S","lat":"40.684359","lon":"-73.977666","name":"Atlantic Av - Barclays Ctr"},{"arrival":"17:02:00","id":"J27N","lat":"40.679498","lon":"-73.904512","name":"Broadway Jct"},{"arrival":"17:02:00","id":"G20S","lat":"40.752039","lon":"-73.928781","name":"36 St"},{"arrival":"17:02:30","id":"G20S","lat":"40.752039","lon":"-73.928781","name":"36 St"},{"arrival":"17:02:30","id":"235N","lat":"40.684359","lon":"-73.977666","name":"Atlantic Av - Barclays Ctr"},{"arrival":"17:02:00","id":"634N","lat":"40.739864","lon":"-73.986599","name":"23 St"},{"arrival":"17:02:00","id":"G28S","lat":"40.724635","lon":"-73.951277","name":"Nassau Av"},{"arrival":"17:02:30","id":"G20N","lat":"40.752039","lon":"-73.928781","name":"36 St"},{"arrival":"17:02:30","id":"G20N","lat":"40.752039","lon":"-73.928781","name":"36 St"},{"arrival":"17:02:30","id":"127S","lat":"40.75529","lon":"-73.987495","name":"Times Sq - 42 St"},{"arrival":"17:02:00","id":"137N","lat":"40.715478","lon":"-74.009266","name":"Chambers St"},{"arrival":"17:02:00","id":"251N","lat":"40.664717","lon":"-73.92261","name":"Sutter Av - Rutland Rd"},{"arrival":"17:02:30","id":"251N","lat":"40.664717","lon":"-73.92261","name":"Sutter Av - Rutland Rd"},{"arrival":"17:02:30","id":"251N","lat":"40.664717","lon":"-73.92261","name":"Sutter Av - Rutland Rd"},{"arrival":"17:02:00","id":"251S","lat":"40.664717","lon":"-73.92261","name":"Sutter Av - Rutland Rd"},{"arrival":"17:02:30","id":"127N","lat":"40.75529","lon":"-73.987495","name":"Times Sq - 42 St"},{"arrival":"17:02:30","id":"J24N","lat":"40.676992","lon":"-73.898654","name":"Alabama Av"},{"arrival":"17:02:00","id":"A16S","lat":"40.805085","lon":"-73.954882","name":"116 St"},{"arrival":"17:02:00","id":"711N","lat":"40.746325","lon":"-73.896403","name":"69 St"},{"arrival":"17:02:00","id":"711N","lat":"40.746325","lon":"-73.896403","name":"69 St"},{"arrival":"17:02:30","id":"A21N","lat":"40.781433","lon":"-73.972143","name":"81 St - Museum of Natural History"},{"arrival":"17:02:00","id":"624N","lat":"40.7906","lon":"-73.947478","name":"103 St"},{"arrival":"17:02:30","id":"S01S","lat":"40.680596","lon":"-73.955827","name":"Franklin Av"},{"arrival":"17:02:30","id":"R20S","lat":"40.735736","lon":"-73.990568","name":"14 St - Union Sq"},{"arrival":"17:02:00","id":"208N","lat":"40.87785","lon":"-73.866256","name":"Gun Hill Rd"},{"arrival":"17:02:30","id":"208N","lat":"40.87785","lon":"-73.866256","name":"Gun Hill Rd"},{"arrival":"17:02:00","id":"208N","lat":"40.87785","lon":"-73.866256","name":"Gun Hill Rd"},{"arrival":"17:02:00","id":"D24S","lat":"40.68446","lon":"-73.97689","name":"Atlantic Av - Barclays Ctr"},{"arrival":"17:02:00","id":"A54N","lat":"40.67413","lon":"-73.88075","name":"Shepherd Av"},{"arrival":"17:02:30","id":"G34S","lat":"40.688873","lon":"-73.96007","name":"Classon Av"},{"arrival":"17:02:00","id":"F36S","lat":"40.596063","lon":"-73.973357","name":"Avenue U"},{"arrival":"17:02:30","id":"L06N","lat":"40.730953","lon":"-73.981628","name":"1 Av"},{"arrival":"17:02:30","id":"111N","lat":"40.849505","lon":"-73.933596","name":"181 St"},{"arrival":"17:02:00","id":"F36N","lat":"40.596063","lon":"-73.973357","name":"Avenue U"},{"arrival":"17:02:30","id":"A27N","lat":"40.757308","lon":"-73.989735","name":"42 St - Port Authority Bus Terminal"},{"arrival":"17:02:30","id":"A42N","lat":"40.688484","lon":"-73.985001","name":"Hoyt - Schermerhorn Sts"},{"arrival":"17:02:30","id":"F31N","lat":"40.625322","lon":"-73.976127","name":"Avenue I"},{"arrival":"17:02:30","id":"F31N","lat":"40.625322","lon":"-73.976127","name":"Avenue I"},{"arrival":"17:02:00","id":"R33N","lat":"40.670847","lon":"-73.988302","name":"9 St"},{"arrival":"17:02:00","id":"M22S","lat":"40.710374","lon":"-74.007582","name":"Fulton St"},{"arrival":"17:02:00","id":"D33N","lat":"40.625039","lon":"-73.960803","name":"Avenue J"},{"arrival":"17:02:00","id":"D33N","lat":"40.625039","lon":"-73.960803","name":"Avenue J"},{"arrival":"17:02:00","id":"J19S","lat":"40.689941","lon":"-73.87255","name":"Cypress Hills"},{"arrival":"17:02:00","id":"J15N","lat":"40.693879","lon":"-73.851576","name":"Woodhaven Blvd"},{"arrival":"17:02:30","id":"A49S","lat":"40.678822","lon":"-73.920786","name":"Ralph Av"},{"arrival":"17:02:00","id":"F31S","lat":"40.625322","lon":"-73.976127","name":"Avenue I"},{"arrival":"17:02:30","id":"F31S","lat":"40.625322","lon":"-73.976127","name":"Avenue I"},{"arrival":"17:02:00","id":"706N","lat":"40.749865","lon":"-73.8627","name":"103 St - Corona Plaza"},{"arrival":"17:02:00","id":"249S","lat":"40.669399","lon":"-73.942161","name":"Kingston Av"},{"arrival":"17:02:30","id":"F22S","lat":"40.67358","lon":"-73.995959","name":"Smith - 9 Sts"},{"arrival":"17:02:30","id":"F22S","lat":"40.67358","lon":"-73.995959","name":"Smith - 9 Sts"},{"arrival":"17:02:30","id":"633S","lat":"40.74307","lon":"-73.984264","name":"28 St"},{"arrival":"17:02:30","id":"222S","lat":"40.81841","lon":"-73.926718","name":"149 St - Grand Concourse"},{"arrival":"17:02:30","id":"222S","lat":"40.81841","lon":"-73.926718","name":"149 St - Grand Concourse"},{"arrival":"17:02:00","id":"B20S","lat":"40.604556","lon":"-73.998168","name":"20 Av"},{"arrival":"17:02:30","id":"633N","lat":"40.74307","lon":"-73.984264","name":"28 St"},{"arrival":"17:02:30","id":"706S","lat":"40.749865","lon":"-73.8627","name":"103 St - Corona Plaza"},{"arrival":"17:02:00","id":"G14S","lat":"40.746644","lon":"-73.891338","name":"Jackson Hts - Roosevelt Av"},{"arrival":"17:02:30","id":"R11S","lat":"40.76266","lon":"-73.967258","name":"Lexington Av\/59 St"},{"arrival":"17:02:30","id":"L19S","lat":"40.695602","lon":"-73.904084","name":"Halsey St"},{"arrival":"17:02:00","id":"242S","lat":"40.662742","lon":"-73.95085","name":"Sterling St"},{"arrival":"17:02:00","id":"A34N","lat":"40.720824","lon":"-74.005229","name":"Canal St"},{"arrival":"17:02:30","id":"A34N","lat":"40.720824","lon":"-74.005229","name":"Canal St"},{"arrival":"17:02:30","id":"B08N","lat":"40.764629","lon":"-73.966113","name":"Lexington Av\/63 St"},{"arrival":"17:02:00","id":"130N","lat":"40.744081","lon":"-73.995657","name":"23 St"},{"arrival":"17:02:30","id":"720N","lat":"40.742216","lon":"-73.948916","name":"Hunters Point Av"},{"arrival":"17:02:30","id":"B10S","lat":"40.763972","lon":"-73.97745","name":"57 St"},{"arrival":"17:02:00","id":"716S","lat":"40.744587","lon":"-73.930997","name":"33 St"},{"arrival":"17:02:00","id":"601S","lat":"40.852462","lon":"-73.828121","name":"Pelham Bay Park"},{"arrival":"17:02:00","id":"601S","lat":"40.852462","lon":"-73.828121","name":"Pelham Bay Park"},{"arrival":"17:02:30","id":"R44S","lat":"40.622687","lon":"-74.028398","name":"86 St"},{"arrival":"17:02:00","id":"638S","lat":"40.722301","lon":"-73.997141","name":"Spring St"},{"arrival":"17:02:00","id":"638S","lat":"40.722301","lon":"-73.997141","name":"Spring St"},{"arrival":"17:02:00","id":"B10N","lat":"40.763972","lon":"-73.97745","name":"57 St"},{"arrival":"17:02:30","id":"123N","lat":"40.778453","lon":"-73.98197","name":"72 St"},{"arrival":"17:02:30","id":"123N","lat":"40.778453","lon":"-73.98197","name":"72 St"},{"arrival":"17:02:30","id":"123S","lat":"40.778453","lon":"-73.98197","name":"72 St"}]}