{"result":[{"arrival":"16:46:00","id":"635S","lat":"40.734673","lon":"-73.989951","name":"14 St - Union Sq"},{"arrival":"16:46:00","id":"635S","lat":"40.734673","lon":"-73.989951","name":"14 St - Union Sq"},{"arrival":"16:46:00","id":"F20S","lat":"40.686145","lon":"-73.990862","name":"Bergen St"},{"arrival":"16:46:30","id":"220S","lat":"40.81649","lon":"-73.907807","name":"Jackson Av"},{"arrival":"16:46:30","id":"220S","lat":"40.81649","lon":"-73.907807","name":"Jackson Av"},{"arrival":"16:46:00","id":"220S","lat":"40.81649","lon":"-73.907807","name":"Jackson Av"},{"arrival":"16:46:00","id":"301N","lat":"40.82388","lon":"-73.93647","name":"Harlem - 148 St"},{"arrival":"16:46:00","id":"301N","lat":"40.82388","lon":"-73.93647","name":"Harlem - 148 St"},{"arrival":"16:46:30","id":"136N","lat":"40.719318","lon":"-74.006886","name":"Franklin St"},{"arrival":"16:46:00","id":"124S","lat":"40.77344","lon":"-73.982209","name":"66 St - Lincoln Center"},{"arrival":"16:46:00","id":"108N","lat":"40.864621","lon":"-73.918822","name":"207 St"},{"arrival":"16:46:00","id":"244N","lat":"40.650843","lon":"-73.949575","name":"Church Av"},{"arrival":"16:46:30","id":"244N","lat":"40.650843","lon":"-73.949575","name":"Church Av"},{"arrival":"16:46:00","id":"244N","lat":"40.650843","lon":"-73.949575","name":"Church Av"},{"arrival":"16:46:00","id":"F11N","lat":"40.757552","lon":"-73.969055","name":"Lexington Av\/53 St"},{"arrival":"16:46:00","id":"244S","lat":"40.650843","lon":"-73.949575","name":"Church Av"},{"arrival":"16:46:30","id":"108S","lat":"40.864621","lon":"-73.918822","name":"207 St"},{"arrival":"16:46:00","id":"136S","lat":"40.719318","lon":"-74.006886","name":"Franklin St"},{"arrival":"16:46:30","id":"136S","lat":"40.719318","lon":"-74.006886","name":"Franklin St"},{"arrival":"16:46:00","id":"F29S","lat":"40.636119","lon":"-73.978172","name":"Ditmas Av"},{"arrival":"16:46:00","id":"124N","lat":"40.77344","lon":"-73.982209","name":"66 St - Lincoln Center"},{"arrival":"16:46:30","id":"714S","lat":"40.743132","lon":"-73.918435","name":"46 St"},{"arrival":"16:46:00","id":"414N","lat":"40.827994","lon":"-73.925831","name":"161 St - Yankee Stadium"},{"arrival":"16:46:30","id":"A61N","lat":"40.680429","lon":"-73.843853","name":"Rockaway Blvd"},{"arrival":"16:46:30","id":"613N","lat":"40.820948","lon":"-73.890549","name":"Hunts Point Av"},{"arrival":"16:46:30","id":"233S","lat":"40.690545","lon":"-73.985065","name":"Hoyt St"},{"arrival":"16:46:30","id":"233S","lat":"40.690545","lon":"-73.985065","name":"Hoyt St"},{"arrival":"16:46:00","id":"233S","lat":"40.690545","lon":"-73.985065","name":"Hoyt St"},{"arrival":"16:46:30","id":"714N","lat":"40.743132","lon":"-73.918435","name":"46 St"},{"arrival":"16:46:30","id":"A09S","lat":"40.840719","lon":"-73.939561","name":"168 St"},{"arrival":"16:46:00","id":"406S","lat":"40.86776","lon":"-73.897174","name":"Kingsbridge Rd"},{"arrival":"16:46:00","id":"S10S","lat":"40.515401","lon":"-74.245689","name":"Atlantic"},{"arrival":"16:46:00","id":"S10S","lat":"40.515401","lon":"-74.245689","name":"Atlantic"},{"arrival":"16:46:30","id":"L27S","lat":"40.658733","lon":"-73.899232","name":"New Lots Av"},{"arrival":"16:46:00","id":"406N","lat":"40.86776","lon":"-73.897174","name":"Kingsbridge Rd"},{"arrival":"16:46:00","id":"406N","lat":"40.86776","lon":"-73.897174","name":"Kingsbridge Rd"},{"arrival":"16:46:00","id":"106N","lat":"40.874561","lon":"-73.909831","name":"Marble Hill - 225 St"},{"arrival":"16:46:30","id":"110N","lat":"40.855225","lon":"-73.929412","name":"191 St"},{"arrival":"16:46:30","id":"A02N","lat":"40.868072","lon":"-73.919899","name":"Inwood - 207 St"},{"arrival":"16:46:00","id":"A02N","lat":"40.868072","lon":"-73.919899","name":"Inwood - 207 St"},{"arrival":"16:46:30","id":"D34S","lat":"40.617618","lon":"-73.959399","name":"Avenue M"},{"arrival":"16:46:30","id":"D34S","lat":"40.617618","lon":"-73.959399","name":"Avenue M"},{"arrival":"16:46:30","id":"J21N","lat":"40.68141","lon":"-73.880039","name":"Norwood Av"},{"arrival":"16:46:30","id":"G24S","lat":"40.744065","lon":"-73.949724","name":"21 St"},{"arrival":"16:46:00","id":"G33N","lat":"40.689627","lon":"-73.953522","name":"Bedford - Nostrand Avs"},{"arrival":"16:46:30","id":"A33N","lat":"40.726227","lon":"-74.003739","name":"Spring St"},{"arrival":"16:46:30","id":"H03N","lat":"40.660476","lon":"-73.830301","name":"Howard Beach - JFK Airport"},{"arrival":"16:46:00","id":"H03N","lat":"40.660476","lon":"-73.830301","name":"Howard Beach - JFK Airport"},{"arrival":"16:46:00","id":"R16S","lat":"40.754672","lon":"-73.986754","name":"Times Sq - 42 St"},{"arrival":"16:46:30","id":"L12S","lat":"40.711926","lon":"-73.94067","name":"Grand St"},{"arrival":"16:46:30","id":"L12S","lat":"40.711926","lon":"-73.94067","name":"Grand St"},{"arrival":"16:46:30","id":"M13S","lat":"40.703869","lon":"-73.947408","name":"Lorimer St"},{"arrival":"16:46:00","id":"R16N","lat":"40.754672","lon":"-73.986754","name":"Times Sq - 42 St"},{"arrival":"16:46:30","id":"L08N","lat":"40.717304","lon":"-73.956872","name":"Bedford Av"},{"arrival":"16:46:00","id":"L08N","lat":"40.717304","lon":"-73.956872","name":"Bedford Av"},{"arrival":"16:46:30","id":"639N","lat":"40.718803","lon":"-74.000193","name":"Canal St"},{"arrival":"16:46:00","id":"N09N","lat":"40.597473","lon":"-73.979137","name":"Avenue U"},{"arrival":"16:46:00","id":"N09N","lat":"40.597473","lon":"-73.979137","name":"Avenue U"},{"arrival":"16:46:30","id":"236N","lat":"40.680829","lon":"-73.975098","name":"Bergen St"},{"arrival":"16:46:30","id":"236N","lat":"40.680829","lon":"-73.975098","name":"Bergen St"},{"arrival":"16:46:30","id":"236N","lat":"40.680829","lon":"-73.975098","name":"Bergen St"},{"arrival":"16:46:00","id":"120N","lat":"40.793919","lon":"-73.972323","name":"96 St"},{"arrival":"16:46:00","id":"120N","lat":"40.793919","lon":"-73.972323","name":"96 St"},{"arrival":"16:46:00","id":"F21N","lat":"40.680303","lon":"-73.995048","name":"Carroll St"},{"arrival":"16:46:30","id":"F21N","lat":"40.680303","lon":"-73.995048","name":"Carroll St"},{"arrival":"16:46:30","id":"B06S","lat":"40.759145","lon":"-73.95326","name":"Roosevelt Island"},{"arrival":"16:46:00","id":"256S","lat":"40.665449","lon":"-73.889395","name":"Van Siclen Av"},{"arrival":"16:46:30","id":"256S","lat":"40.665449","lon":"-73.889395","name":"Van Siclen Av"},{"arrival":"16:46:30","id":"256S","lat":"40.665449","lon":"-73.889395","name":"Van Siclen Av"},{"arrival":"16:46:00","id":"120S","lat":"40.793919","lon":"-73.972323","name":"96 St"},{"arrival":"16:46:30","id":"206S","lat":"40.888022","lon":"-73.860341","name":"225 St"},{"arrival":"16:46:00","id":"A15S","lat":"40.811109","lon":"-73.952343","name":"125 St"},{"arrival":"16:46:00","id":"A15S","lat":"40.811109","lon":"-73.952343","name":"125 St"},{"arrival":"16:46:00","id":"A15N","lat":"40.811109","lon":"-73.952343","name":"125 St"},{"arrival":"16:46:30","id":"A15N","lat":"40.811109","lon":"-73.952343","name":"125 St"},{"arrival":"16:46:30","id":"A15N","lat":"40.811109","lon":"-73.952343","name":"125 St"},{"arrival":"16:46:30","id":"A15N","lat":"40.811109","lon":"-73.952343","name":"125 St"},{"arrival":"16:46:00","id":"617S","lat":"40.805368","lon":"-73.914042","name":"Cypress Av"},{"arrival":"16:46:00","id":"617S","lat":"40.805368","lon":"-73.914042","name":"Cypress Av"},{"arrival":"16:46:00","id":"H10N","lat":"40.600066","lon":"-73.761353","name":"Beach 25 St"},{"arrival":"16:46:00","id":"S14N","lat":"40.52241","lon":"-74.217847","name":"Pleasant Plains"},{"arrival":"16:46:00","id":"410S","lat":"40.84848","lon":"-73.911794","name":"176 St"},{"arrival":"16:46:30","id":"R23N","lat":"40.719527","lon":"-74.001775","name":"Canal St"},{"arrival":"16:46:00","id":"Q01N","lat":"40.718383","lon":"-74.00046","name":"Canal St"},{"arrival":"16:46:30","id":"410N","lat":"40.84848","lon":"-73.911794","name":"176 St"},{"arrival":"16:46:30","id":"A52N","lat":"40.674542","lon":"-73.896548","name":"Liberty Av"},{"arrival":"16:46:30","id":"A47N","lat":"40.679921","lon":"-73.940858","name":"Kingston - Throop Avs"},{"arrival":"16:46:30","id":"M08S","lat":"40.69943","lon":"-73.912385","name":"Myrtle - Wyckoff Avs"},{"arrival":"16:46:30","id":"J12S","lat":"40.700492","lon":"-73.828294","name":"121 St"},{"arrival":"16:46:30","id":"A46N","lat":"40.680438","lon":"-73.950426","name":"Nostrand Av"},{"arrival":"16:46:30","id":"A46N","lat":"40.680438","lon":"-73.950426","name":"Nostrand Av"},{"arrival":"16:46:00","id":"A46N","lat":"40.680438","lon":"-73.950426","name":"Nostrand Av"},{"arrival":"16:46:30","id":"R05S","lat":"40.76182","lon":"-73.925508","name":"Broadway"},{"arrival":"16:46:30","id":"L05S","lat":"40.732849","lon":"-73.986122","name":"3 Av"},{"arrival":"16:46:00","id":"J28S","lat":"40.682893","lon":"-73.910456","name":"Chauncey St"},{"arrival":"16:46:30","id":"G30S","lat":"40.706092","lon":"-73.950308","name":"Broadway"},{"arrival":"16:46:00","id":"L05N","lat":"40.732849","lon":"-73.986122","name":"3 Av"},{"arrival":"16:46:00","id":"A18N","lat":"40.796092","lon":"-73.961454","name":"103 St"},{"arrival":"16:46:00","id":"A18N","lat":"40.796092","lon":"-73.961454","name":"103 St"},{"arrival":"16:46:00","id":"A18N","lat":"40.796092","lon":"-73.961454","name":"103 St"},{"arrival":"16:46:00","id":"J28N","lat":"40.682893","lon":"-73.910456","name":"Chauncey St"},{"arrival":"16:46:00","id":"G28N","lat":"40.724635","lon":"-73.951277","name":"Nassau Av"},{"arrival":"16:46:30","id":"F15S","lat":"40.718611","lon":"-73.988114","name":"Delancey St"},{"arrival":"16:46:30","id":"J30S","lat":"40.68963","lon":"-73.92227","name":"Gates Av"},{"arrival":"16:46:30","id":"F25S","lat":"40.660365","lon":"-73.979493","name":"15 St - Prospect Park"},{"arrival":"16:46:00","id":"N03N","lat":"40.631386","lon":"-74.005351","name":"Fort Hamilton Pkwy"},{"arrival":"16:46:00","id":"N03N","lat":"40.631386","lon":"-74.005351","name":"Fort Hamilton Pkwy"},{"arrival":"16:46:00","id":"M14N","lat":"40.70687","lon":"-73.953431","name":"Hewes St"},{"arrival":"16:46:30","id":"133S","lat":"40.733422","lon":"-74.002906","name":"Christopher St - Sheridan Sq"},{"arrival":"16:46:00","id":"D17S","lat":"40.749719","lon":"-73.987823","name":"34 St - Herald Sq"},{"arrival":"16:46:30","id":"D17S","lat":"40.749719","lon":"-73.987823","name":"34 St - Herald Sq"},{"arrival":"16:46:30","id":"A28S","lat":"40.752287","lon":"-73.993391","name":"34 St - Penn Station"},{"arrival":"16:46:00","id":"D07N","lat":"40.85041","lon":"-73.905227","name":"Tremont Av"},{"arrival":"16:46:30","id":"A60N","lat":"40.679843","lon":"-73.85147","name":"88 St"},{"arrival":"16:46:00","id":"A45S","lat":"40.68138","lon":"-73.956848","name":"Franklin Av"},{"arrival":"16:46:30","id":"A45S","lat":"40.68138","lon":"-73.956848","name":"Franklin Av"},{"arrival":"16:46:30","id":"A45S","lat":"40.68138","lon":"-73.956848","name":"Franklin Av"},{"arrival":"16:46:30","id":"G32N","lat":"40.694568","lon":"-73.949046","name":"Myrtle - Willoughby Avs"},{"arrival":"16:46:00","id":"L13N","lat":"40.707739","lon":"-73.93985","name":"Montrose Av"},{"arrival":"16:46:30","id":"E01N","lat":"40.712582","lon":"-74.009781","name":"World Trade Center"},{"arrival":"16:46:00","id":"A51S","lat":"40.678334","lon":"-73.905316","name":"Broadway Jct"},{"arrival":"16:46:30","id":"632S","lat":"40.746081","lon":"-73.982076","name":"33 St"},{"arrival":"16:46:30","id":"632S","lat":"40.746081","lon":"-73.982076","name":"33 St"},{"arrival":"16:46:30","id":"632S","lat":"40.746081","lon":"-73.982076","name":"33 St"},{"arrival":"16:46:30","id":"254N","lat":"40.663515","lon":"-73.902447","name":"Junius St"},{"arrival":"16:46:00","id":"254N","lat":"40.663515","lon":"-73.902447","name":"Junius St"},{"arrival":"16:46:00","id":"254N","lat":"40.663515","lon":"-73.902447","name":"Junius St"},{"arrival":"16:46:30","id":"F23N","lat":"40.670272","lon":"-73.989779","name":"4 Av"},{"arrival":"16:46:00","id":"109S","lat":"40.860531","lon":"-73.925536","name":"Dyckman St"},{"arrival":"16:46:00","id":"F12S","lat":"40.760167","lon":"-73.975224","name":"5 Av\/53 St"},{"arrival":"16:46:00","id":"125N","lat":"40.768247","lon":"-73.981929","name":"59 St - Columbus Circle"},{"arrival":"16:46:30","id":"F16N","lat":"40.713715","lon":"-73.990173","name":"East Broadway"},{"arrival":"16:46:30","id":"F16N","lat":"40.713715","lon":"-73.990173","name":"East Broadway"},{"arrival":"16:46:00","id":"713N","lat":"40.744149","lon":"-73.912549","name":"52 St"},{"arrival":"16:46:00","id":"A14S","lat":"40.817894","lon":"-73.947649","name":"135 St"},{"arrival":"16:46:30","id":"219S","lat":"40.819585","lon":"-73.90177","name":"Prospect Av"},{"arrival":"16:46:00","id":"626N","lat":"40.779492","lon":"-73.955589","name":"86 St"},{"arrival":"16:46:00","id":"626N","lat":"40.779492","lon":"-73.955589","name":"86 St"},{"arrival":"16:46:00","id":"713S","lat":"40.744149","lon":"-73.912549","name":"52 St"},{"arrival":"16:46:30","id":"405S","lat":"40.873412","lon":"-73.890064","name":"Bedford Park Blvd - Lehman College"},{"arrival":"16:46:00","id":"L22S","lat":"40.678856","lon":"-73.90324","name":"Broadway Jct"},{"arrival":"16:46:30","id":"L22S","lat":"40.678856","lon":"-73.90324","name":"Broadway Jct"},{"arrival":"16:46:00","id":"411S","lat":"40.844434","lon":"-73.914685","name":"Mt Eden Av"},{"arrival":"16:46:00","id":"R22S","lat":"40.724329","lon":"-73.997702","name":"Prince St"},{"arrival":"16:46:00","id":"R22N","lat":"40.724329","lon":"-73.997702","name":"Prince St"},{"arrival":"16:46:00","id":"R22N","lat":"40.724329","lon":"-73.997702","name":"Prince St"},{"arrival":"16:46:00","id":"411N","lat":"40.844434","lon":"-73.914685","name":"Mt Eden Av"},{"arrival":"16:46:00","id":"411N","lat":"40.844434","lon":"-73.914685","name":"Mt Eden Av"},{"arrival":"16:46:30","id":"L22N","lat":"40.678856","lon":"-73.90324","name":"Broadway Jct"},{"arrival":"16:46:00","id":"L22N","lat":"40.678856","lon":"-73.90324","name":"Broadway Jct"},{"arrival":"16:46:00","id":"A03S","lat":"40.865491","lon":"-73.927271","name":"Dyckman St"},{"arrival":"16:46:00","id":"M19N","lat":"40.72028","lon":"-73.993915","name":"Bowery"},{"arrival":"16:46:30","id":"117N","lat":"40.807722","lon":"-73.96411","name":"116 St - Columbia University"},{"arrival":"16:46:00","id":"621N","lat":"40.804138","lon":"-73.937594","name":"125 St"},{"arrival":"16:46:30","id":"M10S","lat":"40.697857","lon":"-73.927397","name":"Central Av"},{"arrival":"16:46:30","id":"M10S","lat":"40.697857","lon":"-73.927397","name":"Central Av"},{"arrival":"16:46:00","id":"117S","lat":"40.807722","lon":"-73.96411","name":"116 St - Columbia University"},{"arrival":"16:46:00","id":"M19S","lat":"40.72028","lon":"-73.993915","name":"Bowery"},{"arrival":"16:46:30","id":"M19S","lat":"40.72028","lon":"-73.993915","name":"Bowery"},{"arrival":"16:46:00","id":"R31S","lat":"40.683666","lon":"-73.97881","name":"Atlantic Av - Barclays Ctr"},{"arrival":"16:46:30","id":"R31S","lat":"40.683666","lon":"-73.97881","name":"Atlantic Av - Barclays Ctr"},{"arrival":"16:46:00","id":"R31S","lat":"40.683666","lon":"-73.97881","name":"Atlantic Av - Barclays Ctr"},{"arrival":"16:46:00","id":"R31S","lat":"40.683666","lon":"-73.97881","name":"Atlantic Av - Barclays Ctr"},{"arrival":"16:46:30","id":"A27S","lat":"40.757308","lon":"-73.989735","name":"42 St - Port Authority Bus Terminal"},{"arrival":"16:46:30","id":"M20N","lat":"40.718092","lon":"-73.999892","name":"Canal St"},{"arrival":"16:46:00","id":"M20N","lat":"40.718092","lon":"-73.999892","name":"Canal St"},{"arrival":"16:46:00","id":"419S","lat":"40.707557","lon":"-74.011862","name":"Wall St"},{"arrival":"16:46:00","id":"J30N","lat":"40.68963","lon":"-73.92227","name":"Gates Av"},{"arrival":"16:46:30","id":"D16S","lat":"40.754222","lon":"-73.984569","name":"42 St - Bryant Pk"},{"arrival":"16:46:00","id":"J31S","lat":"40.693342","lon":"-73.928814","name":"Kosciusko St"},{"arrival":"16:46:30","id":"247S","lat":"40.632836","lon":"-73.947642","name":"Flatbush Av - Brooklyn College"},{"arrival":"16:46:00","id":"A24N","lat":"40.768296","lon":"-73.981736","name":"59 St - Columbus Circle"},{"arrival":"16:46:30","id":"631S","lat":"40.751776","lon":"-73.976848","name":"Grand Central - 42 St"},{"arrival":"16:46:30","id":"631S","lat":"40.751776","lon":"-73.976848","name":"Grand Central - 42 St"},{"arrival":"16:46:00","id":"631S","lat":"40.751776","lon":"-73.976848","name":"Grand Central - 42 St"},{"arrival":"16:46:00","id":"128N","lat":"40.750373","lon":"-73.991057","name":"34 St - Penn Station"},{"arrival":"16:46:30","id":"631N","lat":"40.751776","lon":"-73.976848","name":"Grand Central - 42 St"},{"arrival":"16:46:30","id":"128S","lat":"40.750373","lon":"-73.991057","name":"34 St - Penn Station"},{"arrival":"16:46:00","id":"128S","lat":"40.750373","lon":"-73.991057","name":"34 St - Penn Station"},{"arrival":"16:46:00","id":"128S","lat":"40.750373","lon":"-73.991057","name":"34 St - Penn Station"},{"arrival":"16:46:00","id":"D13S","lat":"40.824783","lon":"-73.944216","name":"145 St"},{"arrival":"16:46:00","id":"D13S","lat":"40.824783","lon":"-73.944216","name":"145 St"},{"arrival":"16:46:00","id":"D13S","lat":"40.824783","lon":"-73.944216","name":"145 St"},{"arrival":"16:46:30","id":"A24S","lat":"40.768296","lon":"-73.981736","name":"59 St - Columbus Circle"},{"arrival":"16:46:00","id":"G16N","lat":"40.752885","lon":"-73.906006","name":"Northern Blvd"},{"arrival":"16:46:00","id":"132N","lat":"40.737826","lon":"-74.000201","name":"14 St"},{"arrival":"16:46:00","id":"640S","lat":"40.713065","lon":"-74.004131","name":"Brooklyn Bridge - City Hall"},{"arrival":"16:46:00","id":"237S","lat":"40.675235","lon":"-73.971046","name":"Grand Army Plaza"},{"arrival":"16:46:30","id":"237S","lat":"40.675235","lon":"-73.971046","name":"Grand Army Plaza"},{"arrival":"16:46:00","id":"237S","lat":"40.675235","lon":"-73.971046","name":"Grand Army Plaza"},{"arrival":"16:46:00","id":"L01N","lat":"40.739777","lon":"-74.002578","name":"8 Av"},{"arrival":"16:46:00","id":"505S","lat":"40.854364","lon":"-73.860495","name":"Morris Park"},{"arrival":"16:46:00","id":"M14S","lat":"40.70687","lon":"-73.953431","name":"Hewes St"},{"arrival":"16:46:00","id":"718N","lat":"40.750582","lon":"-73.940202","name":"Queensboro Plaza"},{"arrival":"16:46:30","id":"718N","lat":"40.750582","lon":"-73.940202","name":"Queensboro Plaza"},{"arrival":"16:46:30","id":"402S","lat":"40.87975","lon":"-73.884655","name":"Mosholu Pkwy"},{"arrival":"16:46:30","id":"402S","lat":"40.87975","lon":"-73.884655","name":"Mosholu Pkwy"},{"arrival":"16:46:30","id":"237N","lat":"40.675235","lon":"-73.971046","name":"Grand Army Plaza"},{"arrival":"16:46:00","id":"640N","lat":"40.713065","lon":"-74.004131","name":"Brooklyn Bridge - City Hall"},{"arrival":"16:46:30","id":"640N","lat":"40.713065","lon":"-74.004131","name":"Brooklyn Bridge - City Hall"},{"arrival":"16:46:30","id":"608N","lat":"40.833226","lon":"-73.860816","name":"Parkchester"},{"arrival":"16:46:00","id":"F24S","lat":"40.666271","lon":"-73.980305","name":"7 Av"},{"arrival":"16:46:30","id":"L01S","lat":"40.739777","lon":"-74.002578","name":"8 Av"},{"arrival":"16:46:30","id":"L17N","lat":"40.699814","lon":"-73.911586","name":"Myrtle - Wyckoff Avs"},{"arrival":"16:46:30","id":"G06S","lat":"40.700486","lon":"-73.807969","name":"Sutphin Blvd - Archer Av - JFK Airport"},{"arrival":"16:46:30","id":"614S","lat":"40.816104","lon":"-73.896435","name":"Longwood Av"},{"arrival":"16:46:30","id":"A06N","lat":"40.851695","lon":"-73.937969","name":"181 St"},{"arrival":"16:46:30","id":"418S","lat":"40.710368","lon":"-74.009509","name":"Fulton St"},{"arrival":"16:46:30","id":"418S","lat":"40.710368","lon":"-74.009509","name":"Fulton St"},{"arrival":"16:46:30","id":"902N","lat":"40.755983","lon":"-73.986229","name":"Times Sq - 42 St"},{"arrival":"16:46:00","id":"902N","lat":"40.755983","lon":"-73.986229","name":"Times Sq - 42 St"},{"arrival":"16:46:30","id":"902N","lat":"40.755983","lon":"-73.986229","name":"Times Sq - 42 St"},{"arrival":"16:46:30","id":"622S","lat":"40.798629","lon":"-73.941617","name":"116 St"},{"arrival":"16:46:00","id":"114S","lat":"40.826551","lon":"-73.95036","name":"145 St"},{"arrival":"16:46:30","id":"114S","lat":"40.826551","lon":"-73.95036","name":"145 St"},{"arrival":"16:46:30","id":"R26S","lat":"40.70722","lon":"-74.013342","name":"Rector St"},{"arrival":"16:46:00","id":"S03N","lat":"40.674772","lon":"-73.957624","name":"Park Pl"},{"arrival":"16:46:30","id":"F34N","lat":"40.608944","lon":"-73.973022","name":"Avenue P"},{"arrival":"16:46:30","id":"238N","lat":"40.671987","lon":"-73.964375","name":"Eastern Pkwy - Brooklyn Museum"},{"arrival":"16:46:30","id":"H07N","lat":"40.592374","lon":"-73.788522","name":"Beach 60 St"},{"arrival":"16:46:00","id":"G36S","lat":"40.687119","lon":"-73.975375","name":"Fulton St"},{"arrival":"16:46:30","id":"103S","lat":"40.884667","lon":"-73.90087","name":"238 St"},{"arrival":"16:46:30","id":"718S","lat":"40.750582","lon":"-73.940202","name":"Queensboro Plaza"},{"arrival":"16:46:30","id":"L24N","lat":"40.675345","lon":"-73.903097","name":"Atlantic Av"},{"arrival":"16:46:30","id":"J13S","lat":"40.697418","lon":"-73.836345","name":"111 St"},{"arrival":"16:46:30","id":"113S","lat":"40.834041","lon":"-73.94489","name":"157 St"},{"arrival":"16:46:30","id":"D09S","lat":"40.839306","lon":"-73.9134","name":"170 St"},{"arrival":"16:46:00","id":"J13N","lat":"40.697418","lon":"-73.836345","name":"111 St"},{"arrival":"16:46:30","id":"L03N","lat":"40.734789","lon":"-73.99073","name":"Union Sq - 14 St"},{"arrival":"16:46:00","id":"116N","lat":"40.815581","lon":"-73.958372","name":"125 St"},{"arrival":"16:46:30","id":"J16S","lat":"40.692435","lon":"-73.86001","name":"85 St - Forest Pkwy"},{"arrival":"16:46:00","id":"M18S","lat":"40.718315","lon":"-73.987437","name":"Essex St"},{"arrival":"16:46:30","id":"A12S","lat":"40.824783","lon":"-73.944216","name":"145 St"},{"arrival":"16:46:30","id":"L03S","lat":"40.734789","lon":"-73.99073","name":"Union Sq - 14 St"},{"arrival":"16:46:00","id":"D20N","lat":"40.732338","lon":"-74.000495","name":"W 4 St"},{"arrival":"16:46:30","id":"D20N","lat":"40.732338","lon":"-74.000495","name":"W 4 St"},{"arrival":"16:46:00","id":"R36N","lat":"40.655144","lon":"-74.003549","name":"36 St"},{"arrival":"16:46:30","id":"D41S","lat":"40.576312","lon":"-73.968501","name":"Ocean Pkwy"},{"arrival":"16:46:00","id":"D14S","lat":"40.762862","lon":"-73.981637","name":"7 Av"},{"arrival":"16:46:00","id":"701S","lat":"40.7596","lon":"-73.83003","name":"Flushing - Main St"},{"arrival":"16:46:30","id":"701S","lat":"40.7596","lon":"-73.83003","name":"Flushing - Main St"},{"arrival":"16:46:30","id":"L10N","lat":"40.714063","lon":"-73.950275","name":"Lorimer St"},{"arrival":"16:46:00","id":"L10S","lat":"40.714063","lon":"-73.950275","name":"Lorimer St"},{"arrival":"16:46:30","id":"G26N","lat":"40.731352","lon":"-73.954449","name":"Greenpoint Av"},{"arrival":"16:46:30","id":"D14N","lat":"40.762862","lon":"-73.981637","name":"7 Av"},{"arrival":"16:46:30","id":"D14N","lat":"40.762862","lon":"-73.981637","name":"7 Av"},{"arrival":"16:46:30","id":"D14N","lat":"40.762862","lon":"-73.981637","name":"7 Av"},{"arrival":"16:46:30","id":"R18S","lat":"40.745494","lon":"-73.988691","name":"28 St"},{"arrival":"16:46:30","id":"R18S","lat":"40.745494","lon":"-73.988691","name":"28 St"},{"arrival":"16:46:30","id":"R18N","lat":"40.745494","lon":"-73.988691","name":"28 St"},{"arrival":"16:46:00","id":"R30N","lat":"40.690635","lon":"-73.981824","name":"DeKalb Av"},{"arrival":"16:46:00","id":"R30N","lat":"40.690635","lon":"-73.981824","name":"DeKalb Av"},{"arrival":"16:46:00","id":"R30N","lat":"40.690635","lon":"-73.981824","name":"DeKalb Av"},{"arrival":"16:46:30","id":"G31S","lat":"40.700377","lon":"-73.950234","name":"Flushing Av"},{"arrival":"16:46:00","id":"R06N","lat":"40.756804","lon":"-73.929575","name":"36 Av"},{"arrival":"16:46:00","id":"H09N","lat":"40.595398","lon":"-73.768175","name":"Beach 36 St"},{"arrival":"16:46:30","id":"R41S","lat":"40.641362","lon":"-74.017881","name":"59 St"},{"arrival":"16:46:30","id":"R41S","lat":"40.641362","lon":"-74.017881","name":"59 St"},{"arrival":"16:46:00","id":"126N","lat":"40.761728","lon":"-73.983849","name":"50 St"},{"arrival":"16:46:00","id":"J19N","lat":"40.689941","lon":"-73.87255","name":"Cypress Hills"},{"arrival":"16:46:00","id":"H09S","lat":"40.595398","lon":"-73.768175","name":"Beach 36 St"},{"arrival":"16:46:30","id":"F27N","lat":"40.644041","lon":"-73.979678","name":"Church Av"},{"arrival":"16:46:30","id":"M04N","lat":"40.706186","lon":"-73.895877","name":"Fresh Pond Rd"},{"arrival":"16:46:00","id":"M04S","lat":"40.706186","lon":"-73.895877","name":"Fresh Pond Rd"},{"arrival":"16:46:00","id":"250S","lat":"40.668897","lon":"-73.932942","name":"Crown Hts - Utica Av"},{"arrival":"16:46:00","id":"134S","lat":"40.728251","lon":"-74.005367","name":"Houston St"},{"arrival":"16:46:00","id":"J22S","lat":"40.679947","lon":"-73.884639","name":"Cleveland St"},{"arrival":"16:46:00","id":"708S","lat":"40.748408","lon":"-73.876613","name":"90 St - Elmhurst Av"},{"arrival":"16:46:00","id":"708S","lat":"40.748408","lon":"-73.876613","name":"90 St - Elmhurst Av"},{"arrival":"16:46:00","id":"F09N","lat":"40.747846","lon":"-73.946","name":"Court Sq"},{"arrival":"16:46:00","id":"A22N","lat":"40.775594","lon":"-73.97641","name":"72 St"},{"arrival":"16:46:30","id":"611S","lat":"40.828584","lon":"-73.879159","name":"Elder Av"},{"arrival":"16:46:30","id":"F05S","lat":"40.709179","lon":"-73.820574","name":"Briarwood - Van Wyck Blvd"},{"arrival":"16:46:30","id":"A63S","lat":"40.681711","lon":"-73.837683","name":"104 St"},{"arrival":"16:46:30","id":"A63S","lat":"40.681711","lon":"-73.837683","name":"104 St"},{"arrival":"16:46:30","id":"724S","lat":"40.753821","lon":"-73.981963","name":"5 Av"},{"arrival":"16:46:30","id":"629N","lat":"40.762526","lon":"-73.967967","name":"59 St"},{"arrival":"16:46:30","id":"712S","lat":"40.74563","lon":"-73.902984","name":"Woodside - 61 St"},{"arrival":"16:46:30","id":"611N","lat":"40.828584","lon":"-73.879159","name":"Elder Av"},{"arrival":"16:46:30","id":"618N","lat":"40.807566","lon":"-73.91924","name":"Brook Av"},{"arrival":"16:46:00","id":"S04S","lat":"40.670343","lon":"-73.959245","name":"Botanic Garden"},{"arrival":"16:46:30","id":"229N","lat":"40.709416","lon":"-74.006571","name":"Fulton St"},{"arrival":"16:46:30","id":"618S","lat":"40.807566","lon":"-73.91924","name":"Brook Av"},{"arrival":"16:46:00","id":"D03S","lat":"40.873244","lon":"-73.887138","name":"Bedford Park Blvd"},{"arrival":"16:46:00","id":"D03S","lat":"40.873244","lon":"-73.887138","name":"Bedford Park Blvd"},{"arrival":"16:46:30","id":"A55S","lat":"40.675377","lon":"-73.872106","name":"Euclid Av"},{"arrival":"16:46:30","id":"A41N","lat":"40.692338","lon":"-73.987342","name":"Jay St - MetroTech"},{"arrival":"16:46:30","id":"A48N","lat":"40.679364","lon":"-73.930729","name":"Utica Av"},{"arrival":"16:46:30","id":"112S","lat":"40.840556","lon":"-73.940133","name":"168 St - Washington Hts"},{"arrival":"16:46:30","id":"R28S","lat":"40.6941","lon":"-73.991777","name":"Court St"},{"arrival":"16:46:30","id":"A48S","lat":"40.679364","lon":"-73.930729","name":"Utica Av"},{"arrival":"16:46:30","id":"J14N","lat":"40.695178","lon":"-73.84433","name":"104 St"},{"arrival":"16:46:00","id":"D08S","lat":"40.8459","lon":"-73.910136","name":"174-175 Sts"},{"arrival":"16:46:00","id":"D08S","lat":"40.8459","lon":"-73.910136","name":"174-175 Sts"},{"arrival":"16:46:30","id":"705S","lat":"40.75173","lon":"-73.855334","name":"111 St"},{"arrival":"16:46:30","id":"F07S","lat":"40.718331","lon":"-73.837324","name":"75 Av"},{"arrival":"16:46:30","id":"A25N","lat":"40.762456","lon":"-73.985984","name":"50 St"},{"arrival":"16:46:30","id":"A25N","lat":"40.762456","lon":"-73.985984","name":"50 St"},{"arrival":"16:46:00","id":"129S","lat":"40.747215","lon":"-73.993365","name":"28 St"},{"arrival":"16:46:00","id":"129S","lat":"40.747215","lon":"-73.993365","name":"28 St"},{"arrival":"16:46:30","id":"246N","lat":"40.639967","lon":"-73.948411","name":"Newkirk Av"},{"arrival":"16:46:00","id":"A25S","lat":"40.762456","lon":"-73.985984","name":"50 St"},{"arrival":"16:46:00","id":"M10N","lat":"40.697857","lon":"-73.927397","name":"Central Av"},{"arrival":"16:46:00","id":"G10N","lat":"40.729846","lon":"-73.861604","name":"63 Dr - Rego Park"},{"arrival":"16:46:00","id":"G10N","lat":"40.729846","lon":"-73.861604","name":"63 Dr - Rego Park"},{"arrival":"16:46:00","id":"G10N","lat":"40.729846","lon":"-73.861604","name":"63 Dr - Rego Park"},{"arrival":"16:46:30","id":"F07N","lat":"40.718331","lon":"-73.837324","name":"75 Av"},{"arrival":"16:46:00","id":"F07N","lat":"40.718331","lon":"-73.837324","name":"75 Av"},{"arrival":"16:46:30","id":"705N","lat":"40.75173","lon":"-73.855334","name":"111 St"},{"arrival":"16:46:00","id":"R14N","lat":"40.764664","lon":"-73.980658","name":"57 St - 7 Av"},{"arrival":"16:46:30","id":"A31S","lat":"40.740893","lon":"-74.00169","name":"14 St"},{"arrival":"16:46:00","id":"A31S","lat":"40.740893","lon":"-74.00169","name":"14 St"},{"arrival":"16:46:30","id":"A31N","lat":"40.740893","lon":"-74.00169","name":"14 St"},{"arrival":"16:46:00","id":"A31N","lat":"40.740893","lon":"-74.00169","name":"14 St"},{"arrival":"16:46:30","id":"A31N","lat":"40.740893","lon":"-74.00169","name":"14 St"},{"arrival":"16:46:30","id":"G21S","lat":"40.748973","lon":"-73.937243","name":"Queens Plaza"},{"arrival":"16:46:00","id":"G21S","lat":"40.748973","lon":"-73.937243","name":"Queens Plaza"},{"arrival":"16:46:30","id":"D31N","lat":"40.635082","lon":"-73.962793","name":"Newkirk Av"},{"arrival":"16:46:30","id":"D31N","lat":"40.635082","lon":"-73.962793","name":"Newkirk Av"},{"arrival":"16:46:30","id":"H01N","lat":"40.668234","lon":"-73.834058","name":"Aqueduct Racetrack"},{"arrival":"16:46:00","id":"119S","lat":"40.799446","lon":"-73.968379","name":"103 St"},{"arrival":"16:46:30","id":"415N","lat":"40.818375","lon":"-73.927351","name":"149 St - Grand Concourse"},{"arrival":"16:46:30","id":"415N","lat":"40.818375","lon":"-73.927351","name":"149 St - Grand Concourse"},{"arrival":"16:46:30","id":"416S","lat":"40.813224","lon":"-73.929849","name":"138 St - Grand Concourse"},{"arrival":"16:46:30","id":"416S","lat":"40.813224","lon":"-73.929849","name":"138 St - Grand Concourse"},{"arrival":"16:46:30","id":"A20S","lat":"40.785868","lon":"-73.968916","name":"86 St"},{"arrival":"16:46:00","id":"R45S","lat":"40.616622","lon":"-74.030876","name":"Bay Ridge - 95 St"},{"arrival":"16:46:30","id":"B16N","lat":"40.626472","lon":"-73.996895","name":"62 St"},{"arrival":"16:46:30","id":"B16N","lat":"40.626472","lon":"-73.996895","name":"62 St"},{"arrival":"16:46:00","id":"A10N","lat":"40.836013","lon":"-73.939892","name":"163 St - Amsterdam Av"},{"arrival":"16:46:00","id":"A10N","lat":"40.836013","lon":"-73.939892","name":"163 St - Amsterdam Av"},{"arrival":"16:46:30","id":"122S","lat":"40.783934","lon":"-73.979917","name":"79 St"},{"arrival":"16:46:00","id":"709N","lat":"40.747659","lon":"-73.883697","name":"82 St - Jackson Hts"},{"arrival":"16:46:30","id":"709N","lat":"40.747659","lon":"-73.883697","name":"82 St - Jackson Hts"},{"arrival":"16:46:30","id":"216S","lat":"40.829993","lon":"-73.891865","name":"Freeman St"},{"arrival":"16:46:00","id":"A07S","lat":"40.847391","lon":"-73.939704","name":"175 St"},{"arrival":"16:46:00","id":"A07S","lat":"40.847391","lon":"-73.939704","name":"175 St"},{"arrival":"16:46:30","id":"G07S","lat":"40.702566","lon":"-73.816859","name":"Jamaica - Van Wyck"},{"arrival":"16:46:30","id":"L19N","lat":"40.695602","lon":"-73.904084","name":"Halsey St"},{"arrival":"16:46:30","id":"239S","lat":"40.670682","lon":"-73.958131","name":"Franklin Av"},{"arrival":"16:46:00","id":"R35N","lat":"40.660397","lon":"-73.998091","name":"25 St"},{"arrival":"16:46:00","id":"R35N","lat":"40.660397","lon":"-73.998091","name":"25 St"},{"arrival":"16:46:30","id":"239N","lat":"40.670682","lon":"-73.958131","name":"Franklin Av"},{"arrival":"16:46:00","id":"239N","lat":"40.670682","lon":"-73.958131","name":"Franklin Av"},{"arrival":"16:46:30","id":"M16N","lat":"40.708359","lon":"-73.957757","name":"Marcy Av"},{"arrival":"16:46:00","id":"232N","lat":"40.693219","lon":"-73.989998","name":"Borough Hall"},{"arrival":"16:46:00","id":"232N","lat":"40.693219","lon":"-73.989998","name":"Borough Hall"},{"arrival":"16:46:00","id":"612S","lat":"40.826525","lon":"-73.886283","name":"Whitlock Av"},{"arrival":"16:46:00","id":"725N","lat":"40.755477","lon":"-73.987691","name":"Times Sq - 42 St"},{"arrival":"16:46:30","id":"725N","lat":"40.755477","lon":"-73.987691","name":"Times Sq - 42 St"},{"arrival":"16:46:30","id":"628S","lat":"40.768141","lon":"-73.96387","name":"68 St - Hunter College"},{"arrival":"16:46:30","id":"228S","lat":"40.713051","lon":"-74.008811","name":"Park Pl"},{"arrival":"16:46:30","id":"628N","lat":"40.768141","lon":"-73.96387","name":"68 St - Hunter College"},{"arrival":"16:46:00","id":"715S","lat":"40.743781","lon":"-73.924016","name":"40 St"},{"arrival":"16:46:00","id":"619N","lat":"40.810476","lon":"-73.926138","name":"3 Av - 138 St"},{"arrival":"16:46:30","id":"J20S","lat":"40.683194","lon":"-73.873785","name":"Crescent St"},{"arrival":"16:46:00","id":"D42S","lat":"40.576127","lon":"-73.975939","name":"W 8 St - NY Aquarium"},{"arrival":"16:46:00","id":"115N","lat":"40.822008","lon":"-73.953676","name":"137 St - City College"},{"arrival":"16:46:30","id":"G09S","lat":"40.726523","lon":"-73.852719","name":"67 Av"},{"arrival":"16:46:00","id":"M16S","lat":"40.708359","lon":"-73.957757","name":"Marcy Av"},{"arrival":"16:46:00","id":"D30N","lat":"40.640927","lon":"-73.963891","name":"Cortelyou Rd"},{"arrival":"16:46:00","id":"D30N","lat":"40.640927","lon":"-73.963891","name":"Cortelyou Rd"},{"arrival":"16:46:30","id":"623S","lat":"40.79502","lon":"-73.94425","name":"110 St"},{"arrival":"16:46:30","id":"623S","lat":"40.79502","lon":"-73.94425","name":"110 St"},{"arrival":"16:46:00","id":"S18N","lat":"40.544601","lon":"-74.16457","name":"Eltingville"},{"arrival":"16:46:00","id":"S18N","lat":"40.544601","lon":"-74.16457","name":"Eltingville"},{"arrival":"16:46:00","id":"A21S","lat":"40.781433","lon":"-73.972143","name":"81 St - Museum of Natural History"},{"arrival":"16:46:00","id":"719N","lat":"40.747023","lon":"-73.945264","name":"Court Sq"},{"arrival":"16:46:30","id":"R27N","lat":"40.703087","lon":"-74.012994","name":"Whitehall St"},{"arrival":"16:46:00","id":"702S","lat":"40.754622","lon":"-73.845625","name":"Mets - Willets Point"},{"arrival":"16:46:00","id":"F06S","lat":"40.714441","lon":"-73.831008","name":"Kew Gardens - Union Tpke"},{"arrival":"16:46:00","id":"A22S","lat":"40.775594","lon":"-73.97641","name":"72 St"},{"arrival":"16:46:00","id":"A22S","lat":"40.775594","lon":"-73.97641","name":"72 St"},{"arrival":"16:46:00","id":"G13S","lat":"40.742454","lon":"-73.882017","name":"Elmhurst Av"},{"arrival":"16:46:30","id":"G13S","lat":"40.742454","lon":"-73.882017","name":"Elmhurst Av"},{"arrival":"16:46:30","id":"G13S","lat":"40.742454","lon":"-73.882017","name":"Elmhurst Av"},{"arrival":"16:46:00","id":"D05N","lat":"40.861296","lon":"-73.897749","name":"Fordham Rd"},{"arrival":"16:46:30","id":"A30S","lat":"40.745906","lon":"-73.998041","name":"23 St"},{"arrival":"16:46:30","id":"225N","lat":"40.807754","lon":"-73.945495","name":"125 St"},{"arrival":"16:46:00","id":"225N","lat":"40.807754","lon":"-73.945495","name":"125 St"},{"arrival":"16:46:30","id":"225N","lat":"40.807754","lon":"-73.945495","name":"125 St"},{"arrival":"16:46:30","id":"F34S","lat":"40.608944","lon":"-73.973022","name":"Avenue P"},{"arrival":"16:46:30","id":"F34S","lat":"40.608944","lon":"-73.973022","name":"Avenue P"},{"arrival":"16:46:00","id":"G18N","lat":"40.756312","lon":"-73.913333","name":"46 St"},{"arrival":"16:46:00","id":"G18N","lat":"40.756312","lon":"-73.913333","name":"46 St"},{"arrival":"16:46:00","id":"G18N","lat":"40.756312","lon":"-73.913333","name":"46 St"},{"arrival":"16:46:00","id":"D18N","lat":"40.742878","lon":"-73.992821","name":"23 St"},{"arrival":"16:46:00","id":"D18S","lat":"40.742878","lon":"-73.992821","name":"23 St"},{"arrival":"16:46:30","id":"G22S","lat":"40.746554","lon":"-73.943832","name":"Court Sq"},{"arrival":"16:46:30","id":"G22S","lat":"40.746554","lon":"-73.943832","name":"Court Sq"},{"arrival":"16:46:30","id":"G18S","lat":"40.756312","lon":"-73.913333","name":"46 St"},{"arrival":"16:46:30","id":"R15N","lat":"40.759901","lon":"-73.984139","name":"49 St"},{"arrival":"16:46:30","id":"R15N","lat":"40.759901","lon":"-73.984139","name":"49 St"},{"arrival":"16:46:00","id":"634S","lat":"40.739864","lon":"-73.986599","name":"23 St"},{"arrival":"16:46:00","id":"235S","lat":"40.684359","lon":"-73.977666","name":"Atlantic Av - Barclays Ctr"},{"arrival":"16:46:30","id":"235S","lat":"40.684359","lon":"-73.977666","name":"Atlantic Av - Barclays Ctr"},{"arrival":"16:46:00","id":"B14S","lat":"40.63626","lon":"-73.994791","name":"50 St"},{"arrival":"16:46:00","id":"B14S","lat":"40.63626","lon":"-73.994791","name":"50 St"},{"arrival":"16:46:00","id":"G20S","lat":"40.752039","lon":"-73.928781","name":"36 St"},{"arrival":"16:46:00","id":"G20S","lat":"40.752039","lon":"-73.928781","name":"36 St"},{"arrival":"16:46:00","id":"G20S","lat":"40.752039","lon":"-73.928781","name":"36 St"},{"arrival":"16:46:00","id":"G20S","lat":"40.752039","lon":"-73.928781","name":"36 St"},{"arrival":"16:46:30","id":"235N","lat":"40.684359","lon":"-73.977666","name":"Atlantic Av - Barclays Ctr"},{"arrival":"16:46:00","id":"N07S","lat":"40.611815","lon":"-73.981848","name":"Bay Pkwy"},{"arrival":"16:46:00","id":"N07S","lat":"40.611815","lon":"-73.981848","name":"Bay Pkwy"},{"arrival":"16:46:00","id":"634N","lat":"40.739864","lon":"-73.986599","name":"23 St"},{"arrival":"16:46:30","id":"137N","lat":"40.715478","lon":"-74.009266","name":"Chambers St"},{"arrival":"16:46:00","id":"137N","lat":"40.715478","lon":"-74.009266","name":"Chambers St"},{"arrival":"16:46:30","id":"137N","lat":"40.715478","lon":"-74.009266","name":"Chambers St"},{"arrival":"16:46:00","id":"F26N","lat":"40.650782","lon":"-73.975776","name":"Fort Hamilton Pkwy"},{"arrival":"16:46:00","id":"F26N","lat":"40.650782","lon":"-73.975776","name":"Fort Hamilton Pkwy"},{"arrival":"16:46:00","id":"F26S","lat":"40.650782","lon":"-73.975776","name":"Fort Hamilton Pkwy"},{"arrival":"16:46:30","id":"137S","lat":"40.715478","lon":"-74.009266","name":"Chambers St"},{"arrival":"16:46:30","id":"624S","lat":"40.7906","lon":"-73.947478","name":"103 St"},{"arrival":"16:46:00","id":"616N","lat":"40.808719","lon":"-73.907657","name":"E 143 St - St Mary's St"},{"arrival":"16:46:00","id":"A16S","lat":"40.805085","lon":"-73.954882","name":"116 St"},{"arrival":"16:46:00","id":"711N","lat":"40.746325","lon":"-73.896403","name":"69 St"},{"arrival":"16:46:00","id":"711S","lat":"40.746325","lon":"-73.896403","name":"69 St"},{"arrival":"16:46:30","id":"225S","lat":"40.807754","lon":"-73.945495","name":"125 St"},{"arrival":"16:46:30","id":"217N","lat":"40.824073","lon":"-73.893064","name":"Simpson St"},{"arrival":"16:46:00","id":"217N","lat":"40.824073","lon":"-73.893064","name":"Simpson St"},{"arrival":"16:46:30","id":"217N","lat":"40.824073","lon":"-73.893064","name":"Simpson St"},{"arrival":"16:46:30","id":"616S","lat":"40.808719","lon":"-73.907657","name":"E 143 St - St Mary's St"},{"arrival":"16:46:00","id":"624N","lat":"40.7906","lon":"-73.947478","name":"103 St"},{"arrival":"16:46:30","id":"R20S","lat":"40.735736","lon":"-73.990568","name":"14 St - Union Sq"},{"arrival":"16:46:30","id":"R20S","lat":"40.735736","lon":"-73.990568","name":"14 St - Union Sq"},{"arrival":"16:46:00","id":"J27S","lat":"40.679498","lon":"-73.904512","name":"Broadway Jct"},{"arrival":"16:46:30","id":"A42S","lat":"40.688484","lon":"-73.985001","name":"Hoyt - Schermerhorn Sts"},{"arrival":"16:46:30","id":"L06S","lat":"40.730953","lon":"-73.981628","name":"1 Av"},{"arrival":"16:46:30","id":"G34N","lat":"40.688873","lon":"-73.96007","name":"Classon Av"},{"arrival":"16:46:00","id":"A27N","lat":"40.757308","lon":"-73.989735","name":"42 St - Port Authority Bus Terminal"},{"arrival":"16:46:00","id":"A42N","lat":"40.688484","lon":"-73.985001","name":"Hoyt - Schermerhorn Sts"},{"arrival":"16:46:30","id":"F31N","lat":"40.625322","lon":"-73.976127","name":"Avenue I"},{"arrival":"16:46:00","id":"S27S","lat":"40.603117","lon":"-74.084087","name":"Grasmere"},{"arrival":"16:46:00","id":"S27S","lat":"40.603117","lon":"-74.084087","name":"Grasmere"},{"arrival":"16:46:00","id":"J15S","lat":"40.693879","lon":"-73.851576","name":"Woodhaven Blvd"},{"arrival":"16:46:30","id":"R33S","lat":"40.670847","lon":"-73.988302","name":"9 St"},{"arrival":"16:46:30","id":"R33S","lat":"40.670847","lon":"-73.988302","name":"9 St"},{"arrival":"16:46:00","id":"249S","lat":"40.669399","lon":"-73.942161","name":"Kingston Av"},{"arrival":"16:46:00","id":"222S","lat":"40.81841","lon":"-73.926718","name":"149 St - Grand Concourse"},{"arrival":"16:46:30","id":"222N","lat":"40.81841","lon":"-73.926718","name":"149 St - Grand Concourse"},{"arrival":"16:46:30","id":"B20S","lat":"40.604556","lon":"-73.998168","name":"20 Av"},{"arrival":"16:46:30","id":"B20S","lat":"40.604556","lon":"-73.998168","name":"20 Av"},{"arrival":"16:46:00","id":"F22N","lat":"40.67358","lon":"-73.995959","name":"Smith - 9 Sts"},{"arrival":"16:46:30","id":"F22N","lat":"40.67358","lon":"-73.995959","name":"Smith - 9 Sts"},{"arrival":"16:46:00","id":"F22N","lat":"40.67358","lon":"-73.995959","name":"Smith - 9 Sts"},{"arrival":"16:46:00","id":"633N","lat":"40.74307","lon":"-73.984264","name":"28 St"},{"arrival":"16:46:00","id":"706S","lat":"40.749865","lon":"-73.8627","name":"103 St - Corona Plaza"},{"arrival":"16:46:00","id":"706S","lat":"40.749865","lon":"-73.8627","name":"103 St - Corona Plaza"},{"arrival":"16:46:00","id":"A34S","lat":"40.720824","lon":"-74.005229","name":"Canal St"},{"arrival":"16:46:30","id":"A34S","lat":"40.720824","lon":"-74.005229","name":"Canal St"},{"arrival":"16:46:30","id":"G14S","lat":"40.746644","lon":"-73.891338","name":"Jackson Hts - Roosevelt Av"},{"arrival":"16:46:00","id":"L19S","lat":"40.695602","lon":"-73.904084","name":"Halsey St"},{"arrival":"16:46:30","id":"L19S","lat":"40.695602","lon":"-73.904084","name":"Halsey St"},{"arrival":"16:46:30","id":"L19S","lat":"40.695602","lon":"-73.904084","name":"Halsey St"},{"arrival":"16:46:30","id":"A34N","lat":"40.720824","lon":"-74.005229","name":"Canal St"},{"arrival":"16:46:00","id":"130N","lat":"40.744081","lon":"-73.995657","name":"23 St"},{"arrival":"16:46:00","id":"130N","lat":"40.744081","lon":"-73.995657","name":"23 St"},{"arrival":"16:46:30","id":"720N","lat":"40.742216","lon":"-73.948916","name":"Hunters Point Av"},{"arrival":"16:46:30","id":"638N","lat":"40.722301","lon":"-73.997141","name":"Spring St"},{"arrival":"16:46:00","id":"R44N","lat":"40.622687","lon":"-74.028398","name":"86 St"},{"arrival":"16:46:30","id":"638S","lat":"40.722301","lon":"-73.997141","name":"Spring St"},{"arrival":"16:46:00","id":"638S","lat":"40.722301","lon":"-73.997141","name":"Spring St"},{"arrival":"16:46:00","id":"638S","lat":"40.722301","lon":"-73.997141","name":"Spring St"},{"arrival":"16:46:30","id":"716N","lat":"40.744587","lon":"-73.930997","name":"33 St"},{"arrival":"16:46:00","id":"B17N","lat":"40.619589","lon":"-73.998864","name":"71 St"},{"arrival":"16:46:00","id":"L28N","lat":"40.650573","lon":"-73.899485","name":"E 105 St"},{"arrival":"16:46:00","id":"F09S","lat":"40.747846","lon":"-73.946","name":"Court Sq"},{"arrival":"16:46:30","id":"123S","lat":"40.778453","lon":"-73.98197","name":"72 St"},{"arrival":"16:46:30","id":"123S","lat":"40.778453","lon":"-73.98197","name":"72 St"},{"arrival":"16:46:00","id":"123S","lat":"40.778453","lon":"-73.98197","name":"72 St"}]}