{"result":[{"arrival":"23:23:30","id":"113N","lat":"40.834041","lon":"-73.94489","name":"157 St"},{"arrival":"23:23:30","id":"627N","lat":"40.77362","lon":"-73.959874","name":"77 St"},{"arrival":"23:23:30","id":"N02S","lat":"40.635064","lon":"-74.011719","name":"8 Av"},{"arrival":"23:23:30","id":"224S","lat":"40.814229","lon":"-73.94077","name":"135 St"},{"arrival":"23:23:30","id":"206N","lat":"40.888022","lon":"-73.860341","name":"225 St"},{"arrival":"23:23:30","id":"705N","lat":"40.75173","lon":"-73.855334","name":"111 St"},{"arrival":"23:23:30","id":"R32N","lat":"40.677316","lon":"-73.98311","name":"Union St"},{"arrival":"23:23:30","id":"R32N","lat":"40.677316","lon":"-73.98311","name":"Union St"},{"arrival":"23:23:00","id":"121S","lat":"40.788644","lon":"-73.976218","name":"86 St"},{"arrival":"23:23:00","id":"705S","lat":"40.75173","lon":"-73.855334","name":"111 St"},{"arrival":"23:23:00","id":"249N","lat":"40.669399","lon":"-73.942161","name":"Kingston Av"},{"arrival":"23:23:00","id":"249N","lat":"40.669399","lon":"-73.942161","name":"Kingston Av"},{"arrival":"23:23:30","id":"F21N","lat":"40.680303","lon":"-73.995048","name":"Carroll St"},{"arrival":"23:23:30","id":"F21S","lat":"40.680303","lon":"-73.995048","name":"Carroll St"},{"arrival":"23:23:30","id":"F21S","lat":"40.680303","lon":"-73.995048","name":"Carroll St"},{"arrival":"23:23:30","id":"F21S","lat":"40.680303","lon":"-73.995048","name":"Carroll St"},{"arrival":"23:23:30","id":"409N","lat":"40.853453","lon":"-73.907684","name":"Burnside Av"},{"arrival":"23:23:30","id":"S04S","lat":"40.670343","lon":"-73.959245","name":"Botanic Garden"},{"arrival":"23:23:30","id":"S04S","lat":"40.670343","lon":"-73.959245","name":"Botanic Garden"},{"arrival":"23:23:30","id":"S04S","lat":"40.670343","lon":"-73.959245","name":"Botanic Garden"},{"arrival":"23:23:00","id":"L21N","lat":"40.682829","lon":"-73.905249","name":"Bushwick Av - Aberdeen St"},{"arrival":"23:23:00","id":"L21N","lat":"40.682829","lon":"-73.905249","name":"Bushwick Av - Aberdeen St"},{"arrival":"23:23:00","id":"L21N","lat":"40.682829","lon":"-73.905249","name":"Bushwick Av - Aberdeen St"},{"arrival":"23:23:30","id":"A18N","lat":"40.796092","lon":"-73.961454","name":"103 St"},{"arrival":"23:23:00","id":"402N","lat":"40.87975","lon":"-73.884655","name":"Mosholu Pkwy"},{"arrival":"23:23:00","id":"R18S","lat":"40.745494","lon":"-73.988691","name":"28 St"},{"arrival":"23:23:00","id":"G34S","lat":"40.688873","lon":"-73.96007","name":"Classon Av"},{"arrival":"23:23:30","id":"233S","lat":"40.690545","lon":"-73.985065","name":"Hoyt St"},{"arrival":"23:23:30","id":"D14N","lat":"40.762862","lon":"-73.981637","name":"7 Av"},{"arrival":"23:23:30","id":"D14N","lat":"40.762862","lon":"-73.981637","name":"7 Av"},{"arrival":"23:23:00","id":"712N","lat":"40.74563","lon":"-73.902984","name":"Woodside - 61 St"},{"arrival":"23:23:00","id":"F27N","lat":"40.644041","lon":"-73.979678","name":"Church Av"},{"arrival":"23:23:30","id":"216S","lat":"40.829993","lon":"-73.891865","name":"Freeman St"},{"arrival":"23:23:00","id":"D21S","lat":"40.725297","lon":"-73.996204","name":"Broadway-Lafayette St"},{"arrival":"23:23:00","id":"D21S","lat":"40.725297","lon":"-73.996204","name":"Broadway-Lafayette St"},{"arrival":"23:23:00","id":"301S","lat":"40.82388","lon":"-73.93647","name":"Harlem - 148 St"},{"arrival":"23:23:00","id":"301S","lat":"40.82388","lon":"-73.93647","name":"Harlem - 148 St"},{"arrival":"23:23:00","id":"632S","lat":"40.746081","lon":"-73.982076","name":"33 St"},{"arrival":"23:23:00","id":"632N","lat":"40.746081","lon":"-73.982076","name":"33 St"},{"arrival":"23:23:30","id":"211S","lat":"40.857192","lon":"-73.867615","name":"Pelham Pkwy"},{"arrival":"23:23:00","id":"229N","lat":"40.709416","lon":"-74.006571","name":"Fulton St"},{"arrival":"23:23:00","id":"229N","lat":"40.709416","lon":"-74.006571","name":"Fulton St"},{"arrival":"23:23:30","id":"256N","lat":"40.665449","lon":"-73.889395","name":"Van Siclen Av"},{"arrival":"23:23:30","id":"117N","lat":"40.807722","lon":"-73.96411","name":"116 St - Columbia University"},{"arrival":"23:23:30","id":"117N","lat":"40.807722","lon":"-73.96411","name":"116 St - Columbia University"},{"arrival":"23:23:30","id":"420N","lat":"40.704817","lon":"-74.014065","name":"Bowling Green"},{"arrival":"23:23:30","id":"420N","lat":"40.704817","lon":"-74.014065","name":"Bowling Green"},{"arrival":"23:23:00","id":"G13N","lat":"40.742454","lon":"-73.882017","name":"Elmhurst Av"},{"arrival":"23:23:30","id":"R39S","lat":"40.648939","lon":"-74.010006","name":"45 St"},{"arrival":"23:23:00","id":"R39N","lat":"40.648939","lon":"-74.010006","name":"45 St"},{"arrival":"23:23:00","id":"D22N","lat":"40.718267","lon":"-73.993753","name":"Grand St"},{"arrival":"23:23:00","id":"420S","lat":"40.704817","lon":"-74.014065","name":"Bowling Green"},{"arrival":"23:23:00","id":"712S","lat":"40.74563","lon":"-73.902984","name":"Woodside - 61 St"},{"arrival":"23:23:00","id":"712S","lat":"40.74563","lon":"-73.902984","name":"Woodside - 61 St"},{"arrival":"23:23:30","id":"A25S","lat":"40.762456","lon":"-73.985984","name":"50 St"},{"arrival":"23:23:30","id":"A25S","lat":"40.762456","lon":"-73.985984","name":"50 St"},{"arrival":"23:23:30","id":"N03S","lat":"40.631386","lon":"-74.005351","name":"Fort Hamilton Pkwy"},{"arrival":"23:23:00","id":"R45S","lat":"40.616622","lon":"-74.030876","name":"Bay Ridge - 95 St"},{"arrival":"23:23:30","id":"611N","lat":"40.828584","lon":"-73.879159","name":"Elder Av"},{"arrival":"23:23:30","id":"611N","lat":"40.828584","lon":"-73.879159","name":"Elder Av"},{"arrival":"23:23:30","id":"R42S","lat":"40.634967","lon":"-74.023377","name":"Bay Ridge Av"},{"arrival":"23:23:00","id":"N03N","lat":"40.631386","lon":"-74.005351","name":"Fort Hamilton Pkwy"},{"arrival":"23:23:00","id":"629S","lat":"40.762526","lon":"-73.967967","name":"59 St"},{"arrival":"23:23:00","id":"F14N","lat":"40.723402","lon":"-73.989938","name":"2 Av"},{"arrival":"23:23:00","id":"L29N","lat":"40.646654","lon":"-73.90185","name":"Canarsie - Rockaway Pkwy"},{"arrival":"23:23:00","id":"L29N","lat":"40.646654","lon":"-73.90185","name":"Canarsie - Rockaway Pkwy"},{"arrival":"23:23:00","id":"L29N","lat":"40.646654","lon":"-73.90185","name":"Canarsie - Rockaway Pkwy"},{"arrival":"23:23:00","id":"723S","lat":"40.751431","lon":"-73.976041","name":"Grand Central - 42 St"},{"arrival":"23:23:00","id":"723N","lat":"40.751431","lon":"-73.976041","name":"Grand Central - 42 St"},{"arrival":"23:23:00","id":"723N","lat":"40.751431","lon":"-73.976041","name":"Grand Central - 42 St"},{"arrival":"23:23:30","id":"F07S","lat":"40.718331","lon":"-73.837324","name":"75 Av"},{"arrival":"23:23:00","id":"A32N","lat":"40.732338","lon":"-74.000495","name":"W 4 St"},{"arrival":"23:23:30","id":"A32N","lat":"40.732338","lon":"-74.000495","name":"W 4 St"},{"arrival":"23:23:00","id":"406S","lat":"40.86776","lon":"-73.897174","name":"Kingsbridge Rd"},{"arrival":"23:23:00","id":"G21N","lat":"40.748973","lon":"-73.937243","name":"Queens Plaza"},{"arrival":"23:23:00","id":"718S","lat":"40.750582","lon":"-73.940202","name":"Queensboro Plaza"},{"arrival":"23:23:30","id":"902S","lat":"40.755983","lon":"-73.986229","name":"Times Sq - 42 St"},{"arrival":"23:23:00","id":"255N","lat":"40.664635","lon":"-73.894895","name":"Pennsylvania Av"},{"arrival":"23:23:00","id":"636S","lat":"40.730054","lon":"-73.99107","name":"Astor Pl"},{"arrival":"23:23:00","id":"255S","lat":"40.664635","lon":"-73.894895","name":"Pennsylvania Av"},{"arrival":"23:23:00","id":"255S","lat":"40.664635","lon":"-73.894895","name":"Pennsylvania Av"},{"arrival":"23:23:00","id":"215N","lat":"40.837288","lon":"-73.887734","name":"174 St"},{"arrival":"23:23:30","id":"252S","lat":"40.661453","lon":"-73.916327","name":"Saratoga Av"},{"arrival":"23:23:30","id":"252S","lat":"40.661453","lon":"-73.916327","name":"Saratoga Av"},{"arrival":"23:23:00","id":"D17N","lat":"40.749719","lon":"-73.987823","name":"34 St - Herald Sq"},{"arrival":"23:23:00","id":"D17N","lat":"40.749719","lon":"-73.987823","name":"34 St - Herald Sq"},{"arrival":"23:23:30","id":"239S","lat":"40.670682","lon":"-73.958131","name":"Franklin Av"},{"arrival":"23:23:30","id":"239S","lat":"40.670682","lon":"-73.958131","name":"Franklin Av"},{"arrival":"23:23:30","id":"239N","lat":"40.670682","lon":"-73.958131","name":"Franklin Av"},{"arrival":"23:23:00","id":"F07N","lat":"40.718331","lon":"-73.837324","name":"75 Av"},{"arrival":"23:23:00","id":"609N","lat":"40.831509","lon":"-73.867618","name":"St Lawrence Av"},{"arrival":"23:23:00","id":"132N","lat":"40.737826","lon":"-74.000201","name":"14 St"},{"arrival":"23:23:00","id":"132N","lat":"40.737826","lon":"-74.000201","name":"14 St"},{"arrival":"23:23:30","id":"R21N","lat":"40.730328","lon":"-73.992629","name":"8 St - NYU"},{"arrival":"23:23:00","id":"M16N","lat":"40.708359","lon":"-73.957757","name":"Marcy Av"},{"arrival":"23:23:00","id":"M16N","lat":"40.708359","lon":"-73.957757","name":"Marcy Av"},{"arrival":"23:23:00","id":"M16N","lat":"40.708359","lon":"-73.957757","name":"Marcy Av"},{"arrival":"23:23:00","id":"M16N","lat":"40.708359","lon":"-73.957757","name":"Marcy Av"},{"arrival":"23:23:00","id":"132S","lat":"40.737826","lon":"-74.000201","name":"14 St"},{"arrival":"23:23:30","id":"M16S","lat":"40.708359","lon":"-73.957757","name":"Marcy Av"},{"arrival":"23:23:30","id":"M16S","lat":"40.708359","lon":"-73.957757","name":"Marcy Av"},{"arrival":"23:23:30","id":"A51S","lat":"40.678334","lon":"-73.905316","name":"Broadway Jct"},{"arrival":"23:23:30","id":"F38S","lat":"40.58962","lon":"-73.97425","name":"Avenue X"},{"arrival":"23:23:00","id":"B15S","lat":"40.631435","lon":"-73.995476","name":"55 St"},{"arrival":"23:23:30","id":"125N","lat":"40.768247","lon":"-73.981929","name":"59 St - Columbus Circle"},{"arrival":"23:23:00","id":"A36N","lat":"40.714111","lon":"-74.008585","name":"Chambers St"},{"arrival":"23:23:30","id":"721S","lat":"40.742626","lon":"-73.953581","name":"Vernon Blvd - Jackson Av"},{"arrival":"23:23:30","id":"414S","lat":"40.827994","lon":"-73.925831","name":"161 St - Yankee Stadium"},{"arrival":"23:23:30","id":"A20N","lat":"40.785868","lon":"-73.968916","name":"86 St"},{"arrival":"23:23:00","id":"A48N","lat":"40.679364","lon":"-73.930729","name":"Utica Av"},{"arrival":"23:23:00","id":"D38N","lat":"40.595246","lon":"-73.955161","name":"Neck Rd"},{"arrival":"23:23:00","id":"G10N","lat":"40.729846","lon":"-73.861604","name":"63 Dr - Rego Park"},{"arrival":"23:23:00","id":"606S","lat":"40.836488","lon":"-73.847036","name":"Zerega Av"},{"arrival":"23:23:00","id":"A33S","lat":"40.726227","lon":"-74.003739","name":"Spring St"},{"arrival":"23:23:30","id":"M05N","lat":"40.704423","lon":"-73.903077","name":"Forest Av"},{"arrival":"23:23:00","id":"F23N","lat":"40.670272","lon":"-73.989779","name":"4 Av"},{"arrival":"23:23:30","id":"M05S","lat":"40.704423","lon":"-73.903077","name":"Forest Av"},{"arrival":"23:23:30","id":"M05S","lat":"40.704423","lon":"-73.903077","name":"Forest Av"},{"arrival":"23:23:00","id":"603N","lat":"40.843863","lon":"-73.836322","name":"Middletown Rd"},{"arrival":"23:23:00","id":"M22S","lat":"40.710374","lon":"-74.007582","name":"Fulton St"},{"arrival":"23:23:30","id":"M22N","lat":"40.710374","lon":"-74.007582","name":"Fulton St"},{"arrival":"23:23:00","id":"A02N","lat":"40.868072","lon":"-73.919899","name":"Inwood - 207 St"},{"arrival":"23:23:30","id":"640N","lat":"40.713065","lon":"-74.004131","name":"Brooklyn Bridge - City Hall"},{"arrival":"23:23:30","id":"640S","lat":"40.713065","lon":"-74.004131","name":"Brooklyn Bridge - City Hall"},{"arrival":"23:23:30","id":"640S","lat":"40.713065","lon":"-74.004131","name":"Brooklyn Bridge - City Hall"},{"arrival":"23:23:00","id":"L14N","lat":"40.706152","lon":"-73.933147","name":"Morgan Av"},{"arrival":"23:23:00","id":"L14N","lat":"40.706152","lon":"-73.933147","name":"Morgan Av"},{"arrival":"23:23:00","id":"L14N","lat":"40.706152","lon":"-73.933147","name":"Morgan Av"},{"arrival":"23:23:30","id":"725N","lat":"40.755477","lon":"-73.987691","name":"Times Sq - 42 St"},{"arrival":"23:23:30","id":"221S","lat":"40.816109","lon":"-73.917757","name":"3 Av - 149 St"},{"arrival":"23:23:00","id":"R04S","lat":"40.766779","lon":"-73.921479","name":"30 Av"},{"arrival":"23:23:00","id":"R31N","lat":"40.683666","lon":"-73.97881","name":"Atlantic Av - Barclays Ctr"},{"arrival":"23:23:00","id":"A41N","lat":"40.692338","lon":"-73.987342","name":"Jay St - MetroTech"},{"arrival":"23:23:30","id":"A06S","lat":"40.851695","lon":"-73.937969","name":"181 St"},{"arrival":"23:23:30","id":"A06S","lat":"40.851695","lon":"-73.937969","name":"181 St"},{"arrival":"23:23:30","id":"B21S","lat":"40.601875","lon":"-73.993728","name":"Bay Pkwy"},{"arrival":"23:23:30","id":"J13S","lat":"40.697418","lon":"-73.836345","name":"111 St"},{"arrival":"23:23:30","id":"J13S","lat":"40.697418","lon":"-73.836345","name":"111 St"},{"arrival":"23:23:30","id":"129N","lat":"40.747215","lon":"-73.993365","name":"28 St"},{"arrival":"23:23:00","id":"110N","lat":"40.855225","lon":"-73.929412","name":"191 St"},{"arrival":"23:23:30","id":"F24N","lat":"40.666271","lon":"-73.980305","name":"7 Av"},{"arrival":"23:23:00","id":"J13N","lat":"40.697418","lon":"-73.836345","name":"111 St"},{"arrival":"23:23:00","id":"J13N","lat":"40.697418","lon":"-73.836345","name":"111 St"},{"arrival":"23:23:30","id":"D43N","lat":"40.577422","lon":"-73.981233","name":"Coney Island - Stillwell Av"},{"arrival":"23:23:30","id":"610S","lat":"40.829521","lon":"-73.874516","name":"Morrison Av- Sound View"},{"arrival":"23:23:00","id":"G14N","lat":"40.746644","lon":"-73.891338","name":"Jackson Hts - Roosevelt Av"},{"arrival":"23:23:00","id":"A09N","lat":"40.840719","lon":"-73.939561","name":"168 St"},{"arrival":"23:23:30","id":"F06S","lat":"40.714441","lon":"-73.831008","name":"Kew Gardens - Union Tpke"},{"arrival":"23:23:30","id":"136S","lat":"40.719318","lon":"-74.006886","name":"Franklin St"},{"arrival":"23:23:30","id":"M12S","lat":"40.70026","lon":"-73.941126","name":"Flushing Av"},{"arrival":"23:23:30","id":"R13N","lat":"40.764811","lon":"-73.973347","name":"5 Av\/59 St"},{"arrival":"23:23:30","id":"248S","lat":"40.669847","lon":"-73.950466","name":"Nostrand Av"},{"arrival":"23:23:30","id":"F09N","lat":"40.747846","lon":"-73.946","name":"Court Sq"},{"arrival":"23:23:30","id":"D24N","lat":"40.68446","lon":"-73.97689","name":"Atlantic Av - Barclays Ctr"},{"arrival":"23:23:30","id":"G29N","lat":"40.712792","lon":"-73.951418","name":"Metropolitan Av"},{"arrival":"23:23:00","id":"701S","lat":"40.7596","lon":"-73.83003","name":"Flushing - Main St"},{"arrival":"23:23:00","id":"701S","lat":"40.7596","lon":"-73.83003","name":"Flushing - Main St"},{"arrival":"23:23:30","id":"R13S","lat":"40.764811","lon":"-73.973347","name":"5 Av\/59 St"},{"arrival":"23:23:00","id":"R36S","lat":"40.655144","lon":"-74.003549","name":"36 St"},{"arrival":"23:23:00","id":"R36S","lat":"40.655144","lon":"-74.003549","name":"36 St"},{"arrival":"23:23:00","id":"D33S","lat":"40.625039","lon":"-73.960803","name":"Avenue J"},{"arrival":"23:23:30","id":"711N","lat":"40.746325","lon":"-73.896403","name":"69 St"},{"arrival":"23:23:30","id":"708S","lat":"40.748408","lon":"-73.876613","name":"90 St - Elmhurst Av"},{"arrival":"23:23:30","id":"412S","lat":"40.840075","lon":"-73.917791","name":"170 St"},{"arrival":"23:23:30","id":"B08S","lat":"40.764629","lon":"-73.966113","name":"Lexington Av\/63 St"},{"arrival":"23:23:30","id":"719N","lat":"40.747023","lon":"-73.945264","name":"Court Sq"},{"arrival":"23:23:30","id":"B04N","lat":"40.754203","lon":"-73.942836","name":"21 St - Queensbridge"},{"arrival":"23:23:30","id":"719S","lat":"40.747023","lon":"-73.945264","name":"Court Sq"},{"arrival":"23:23:30","id":"L03S","lat":"40.734789","lon":"-73.99073","name":"Union Sq - 14 St"},{"arrival":"23:23:30","id":"L03S","lat":"40.734789","lon":"-73.99073","name":"Union Sq - 14 St"},{"arrival":"23:23:30","id":"L03S","lat":"40.734789","lon":"-73.99073","name":"Union Sq - 14 St"},{"arrival":"23:23:00","id":"R03N","lat":"40.770258","lon":"-73.917843","name":"Astoria Blvd"},{"arrival":"23:23:00","id":"R03N","lat":"40.770258","lon":"-73.917843","name":"Astoria Blvd"},{"arrival":"23:23:30","id":"631N","lat":"40.751776","lon":"-73.976848","name":"Grand Central - 42 St"},{"arrival":"23:23:30","id":"631N","lat":"40.751776","lon":"-73.976848","name":"Grand Central - 42 St"},{"arrival":"23:23:30","id":"210S","lat":"40.865462","lon":"-73.867352","name":"Allerton Av"},{"arrival":"23:23:00","id":"106N","lat":"40.874561","lon":"-73.909831","name":"Marble Hill - 225 St"},{"arrival":"23:23:00","id":"210N","lat":"40.865462","lon":"-73.867352","name":"Allerton Av"},{"arrival":"23:23:00","id":"210N","lat":"40.865462","lon":"-73.867352","name":"Allerton Av"},{"arrival":"23:23:30","id":"245N","lat":"40.645098","lon":"-73.948959","name":"Beverly Rd"},{"arrival":"23:23:00","id":"123N","lat":"40.778453","lon":"-73.98197","name":"72 St"},{"arrival":"23:23:00","id":"R22S","lat":"40.724329","lon":"-73.997702","name":"Prince St"},{"arrival":"23:23:30","id":"R22S","lat":"40.724329","lon":"-73.997702","name":"Prince St"},{"arrival":"23:23:30","id":"R34S","lat":"40.665414","lon":"-73.992872","name":"Prospect Av"},{"arrival":"23:23:00","id":"A59S","lat":"40.679371","lon":"-73.858992","name":"80 St"},{"arrival":"23:23:00","id":"L11S","lat":"40.714565","lon":"-73.944053","name":"Graham Av"},{"arrival":"23:23:00","id":"L11S","lat":"40.714565","lon":"-73.944053","name":"Graham Av"},{"arrival":"23:23:00","id":"L11S","lat":"40.714565","lon":"-73.944053","name":"Graham Av"},{"arrival":"23:23:30","id":"638N","lat":"40.722301","lon":"-73.997141","name":"Spring St"},{"arrival":"23:23:00","id":"B14N","lat":"40.63626","lon":"-73.994791","name":"50 St"},{"arrival":"23:23:00","id":"A53N","lat":"40.67271","lon":"-73.890358","name":"Van Siclen Av"},{"arrival":"23:23:00","id":"R17N","lat":"40.749567","lon":"-73.98795","name":"34 St - Herald Sq"},{"arrival":"23:23:00","id":"613S","lat":"40.820948","lon":"-73.890549","name":"Hunts Point Av"},{"arrival":"23:23:00","id":"R17S","lat":"40.749567","lon":"-73.98795","name":"34 St - Herald Sq"},{"arrival":"23:23:00","id":"S23S","lat":"40.578965","lon":"-74.109704","name":"Grant City"},{"arrival":"23:23:00","id":"S23S","lat":"40.578965","lon":"-74.109704","name":"Grant City"},{"arrival":"23:23:00","id":"S23S","lat":"40.578965","lon":"-74.109704","name":"Grant City"},{"arrival":"23:23:00","id":"M13S","lat":"40.703869","lon":"-73.947408","name":"Lorimer St"},{"arrival":"23:23:30","id":"F12N","lat":"40.760167","lon":"-73.975224","name":"5 Av\/53 St"},{"arrival":"23:23:30","id":"A06N","lat":"40.851695","lon":"-73.937969","name":"181 St"},{"arrival":"23:23:30","id":"137N","lat":"40.715478","lon":"-74.009266","name":"Chambers St"},{"arrival":"23:23:00","id":"137N","lat":"40.715478","lon":"-74.009266","name":"Chambers St"},{"arrival":"23:23:00","id":"F22S","lat":"40.67358","lon":"-73.995959","name":"Smith - 9 Sts"},{"arrival":"23:23:00","id":"A34S","lat":"40.720824","lon":"-74.005229","name":"Canal St"},{"arrival":"23:23:30","id":"G26S","lat":"40.731352","lon":"-73.954449","name":"Greenpoint Av"},{"arrival":"23:23:30","id":"F22N","lat":"40.67358","lon":"-73.995959","name":"Smith - 9 Sts"},{"arrival":"23:23:00","id":"F22N","lat":"40.67358","lon":"-73.995959","name":"Smith - 9 Sts"},{"arrival":"23:23:00","id":"G08N","lat":"40.721691","lon":"-73.844521","name":"Forest Hills - 71 Av"},{"arrival":"23:23:30","id":"254S","lat":"40.663515","lon":"-73.902447","name":"Junius St"},{"arrival":"23:23:00","id":"D08N","lat":"40.8459","lon":"-73.910136","name":"174-175 Sts"},{"arrival":"23:23:30","id":"238N","lat":"40.671987","lon":"-73.964375","name":"Eastern Pkwy - Brooklyn Museum"},{"arrival":"23:23:30","id":"B10S","lat":"40.763972","lon":"-73.97745","name":"57 St"},{"arrival":"23:23:00","id":"622N","lat":"40.798629","lon":"-73.941617","name":"116 St"},{"arrival":"23:23:00","id":"R30N","lat":"40.690635","lon":"-73.981824","name":"DeKalb Av"},{"arrival":"23:23:00","id":"D07S","lat":"40.85041","lon":"-73.905227","name":"Tremont Av"},{"arrival":"23:23:00","id":"R30S","lat":"40.690635","lon":"-73.981824","name":"DeKalb Av"},{"arrival":"23:23:30","id":"J12S","lat":"40.700492","lon":"-73.828294","name":"121 St"},{"arrival":"23:23:30","id":"B22S","lat":"40.597704","lon":"-73.986829","name":"25 Av"},{"arrival":"23:23:30","id":"128N","lat":"40.750373","lon":"-73.991057","name":"34 St - Penn Station"},{"arrival":"23:23:00","id":"111S","lat":"40.849505","lon":"-73.933596","name":"181 St"},{"arrival":"23:23:00","id":"F33N","lat":"40.61514","lon":"-73.974197","name":"Avenue N"},{"arrival":"23:23:30","id":"G31N","lat":"40.700377","lon":"-73.950234","name":"Flushing Av"},{"arrival":"23:23:00","id":"G31N","lat":"40.700377","lon":"-73.950234","name":"Flushing Av"},{"arrival":"23:23:30","id":"J24N","lat":"40.676992","lon":"-73.898654","name":"Alabama Av"},{"arrival":"23:23:00","id":"B22N","lat":"40.597704","lon":"-73.986829","name":"25 Av"},{"arrival":"23:23:30","id":"B22N","lat":"40.597704","lon":"-73.986829","name":"25 Av"},{"arrival":"23:23:30","id":"B22N","lat":"40.597704","lon":"-73.986829","name":"25 Av"},{"arrival":"23:23:30","id":"128S","lat":"40.750373","lon":"-73.991057","name":"34 St - Penn Station"},{"arrival":"23:23:30","id":"128S","lat":"40.750373","lon":"-73.991057","name":"34 St - Penn Station"},{"arrival":"23:23:30","id":"128S","lat":"40.750373","lon":"-73.991057","name":"34 St - Penn Station"},{"arrival":"23:23:00","id":"D01S","lat":"40.874811","lon":"-73.878855","name":"Norwood - 205 St"},{"arrival":"23:23:00","id":"D01S","lat":"40.874811","lon":"-73.878855","name":"Norwood - 205 St"},{"arrival":"23:23:30","id":"R33N","lat":"40.670847","lon":"-73.988302","name":"9 St"},{"arrival":"23:23:00","id":"134N","lat":"40.728251","lon":"-74.005367","name":"Houston St"},{"arrival":"23:23:30","id":"R23N","lat":"40.719527","lon":"-74.001775","name":"Canal St"},{"arrival":"23:23:30","id":"706N","lat":"40.749865","lon":"-73.8627","name":"103 St - Corona Plaza"},{"arrival":"23:23:00","id":"D42N","lat":"40.576127","lon":"-73.975939","name":"W 8 St - NY Aquarium"},{"arrival":"23:23:00","id":"N05S","lat":"40.620671","lon":"-73.990414","name":"18 Av"},{"arrival":"23:23:30","id":"A44N","lat":"40.683263","lon":"-73.965838","name":"Clinton - Washington Avs"},{"arrival":"23:23:30","id":"G12S","lat":"40.737015","lon":"-73.877223","name":"Grand Av - Newtown"},{"arrival":"23:23:00","id":"G12N","lat":"40.737015","lon":"-73.877223","name":"Grand Av - Newtown"},{"arrival":"23:23:30","id":"L24S","lat":"40.675345","lon":"-73.903097","name":"Atlantic Av"},{"arrival":"23:23:30","id":"L24S","lat":"40.675345","lon":"-73.903097","name":"Atlantic Av"},{"arrival":"23:23:30","id":"L24S","lat":"40.675345","lon":"-73.903097","name":"Atlantic Av"},{"arrival":"23:23:30","id":"F05N","lat":"40.709179","lon":"-73.820574","name":"Briarwood - Van Wyck Blvd"},{"arrival":"23:23:00","id":"F05N","lat":"40.709179","lon":"-73.820574","name":"Briarwood - Van Wyck Blvd"},{"arrival":"23:23:00","id":"F29S","lat":"40.636119","lon":"-73.978172","name":"Ditmas Av"},{"arrival":"23:23:00","id":"F29S","lat":"40.636119","lon":"-73.978172","name":"Ditmas Av"},{"arrival":"23:23:30","id":"H02S","lat":"40.668234","lon":"-73.834058","name":"Aqueduct - N Conduit Av"},{"arrival":"23:23:00","id":"H02N","lat":"40.668234","lon":"-73.834058","name":"Aqueduct - N Conduit Av"},{"arrival":"23:23:00","id":"H02N","lat":"40.668234","lon":"-73.834058","name":"Aqueduct - N Conduit Av"},{"arrival":"23:23:00","id":"R19N","lat":"40.741303","lon":"-73.989344","name":"23 St"},{"arrival":"23:23:30","id":"234N","lat":"40.688246","lon":"-73.980492","name":"Nevins St"},{"arrival":"23:23:00","id":"234N","lat":"40.688246","lon":"-73.980492","name":"Nevins St"},{"arrival":"23:23:30","id":"222N","lat":"40.81841","lon":"-73.926718","name":"149 St - Grand Concourse"},{"arrival":"23:23:30","id":"234S","lat":"40.688246","lon":"-73.980492","name":"Nevins St"},{"arrival":"23:23:30","id":"724S","lat":"40.753821","lon":"-73.981963","name":"5 Av"},{"arrival":"23:23:30","id":"724S","lat":"40.753821","lon":"-73.981963","name":"5 Av"},{"arrival":"23:23:00","id":"108N","lat":"40.864621","lon":"-73.918822","name":"207 St"},{"arrival":"23:23:00","id":"F27S","lat":"40.644041","lon":"-73.979678","name":"Church Av"},{"arrival":"23:23:00","id":"243S","lat":"40.656652","lon":"-73.9502","name":"Winthrop St"},{"arrival":"23:23:00","id":"140S","lat":"40.701411","lon":"-74.013205","name":"South Ferry Loop"},{"arrival":"23:23:00","id":"115S","lat":"40.822008","lon":"-73.953676","name":"137 St - City College"},{"arrival":"23:23:30","id":"D32S","lat":"40.62927","lon":"-73.961639","name":"Avenue H"},{"arrival":"23:23:00","id":"250N","lat":"40.668897","lon":"-73.932942","name":"Crown Hts - Utica Av"},{"arrival":"23:23:30","id":"219N","lat":"40.819585","lon":"-73.90177","name":"Prospect Av"},{"arrival":"23:23:00","id":"623N","lat":"40.79502","lon":"-73.94425","name":"110 St"},{"arrival":"23:23:00","id":"623S","lat":"40.79502","lon":"-73.94425","name":"110 St"},{"arrival":"23:23:30","id":"219S","lat":"40.819585","lon":"-73.90177","name":"Prospect Av"},{"arrival":"23:23:30","id":"247S","lat":"40.632836","lon":"-73.947642","name":"Flatbush Av - Brooklyn College"},{"arrival":"23:23:30","id":"116S","lat":"40.815581","lon":"-73.958372","name":"125 St"},{"arrival":"23:23:00","id":"R16N","lat":"40.754672","lon":"-73.986754","name":"Times Sq - 42 St"},{"arrival":"23:23:00","id":"R16N","lat":"40.754672","lon":"-73.986754","name":"Times Sq - 42 St"},{"arrival":"23:23:30","id":"715N","lat":"40.743781","lon":"-73.924016","name":"40 St"},{"arrival":"23:23:00","id":"R41N","lat":"40.641362","lon":"-74.017881","name":"59 St"},{"arrival":"23:23:30","id":"D22S","lat":"40.718267","lon":"-73.993753","name":"Grand St"},{"arrival":"23:23:30","id":"126S","lat":"40.761728","lon":"-73.983849","name":"50 St"},{"arrival":"23:23:00","id":"A43S","lat":"40.686113","lon":"-73.973946","name":"Lafayette Av"},{"arrival":"23:23:00","id":"A43S","lat":"40.686113","lon":"-73.973946","name":"Lafayette Av"},{"arrival":"23:23:00","id":"A43S","lat":"40.686113","lon":"-73.973946","name":"Lafayette Av"},{"arrival":"23:23:00","id":"A40N","lat":"40.699337","lon":"-73.990531","name":"High St"},{"arrival":"23:23:00","id":"A31N","lat":"40.740893","lon":"-74.00169","name":"14 St"},{"arrival":"23:23:00","id":"A31N","lat":"40.740893","lon":"-74.00169","name":"14 St"},{"arrival":"23:23:30","id":"411N","lat":"40.844434","lon":"-73.914685","name":"Mt Eden Av"},{"arrival":"23:23:30","id":"505N","lat":"40.854364","lon":"-73.860495","name":"Morris Park"},{"arrival":"23:23:30","id":"505N","lat":"40.854364","lon":"-73.860495","name":"Morris Park"},{"arrival":"23:23:30","id":"505N","lat":"40.854364","lon":"-73.860495","name":"Morris Park"},{"arrival":"23:23:30","id":"104S","lat":"40.878856","lon":"-73.904834","name":"231 St"},{"arrival":"23:23:00","id":"501N","lat":"40.8883","lon":"-73.830834","name":"Eastchester - Dyre Av"},{"arrival":"23:23:00","id":"501N","lat":"40.8883","lon":"-73.830834","name":"Eastchester - Dyre Av"},{"arrival":"23:23:00","id":"228S","lat":"40.713051","lon":"-74.008811","name":"Park Pl"},{"arrival":"23:23:00","id":"G30S","lat":"40.706092","lon":"-73.950308","name":"Broadway"},{"arrival":"23:23:00","id":"R06N","lat":"40.756804","lon":"-73.929575","name":"36 Av"},{"arrival":"23:23:00","id":"227N","lat":"40.799075","lon":"-73.951822","name":"Central Park North (110 St)"}]}