{"result":[{"arrival":"18:50:00","id":"635S","lat":"40.734673","lon":"-73.989951","name":"14 St - Union Sq"},{"arrival":"18:50:00","id":"635S","lat":"40.734673","lon":"-73.989951","name":"14 St - Union Sq"},{"arrival":"18:50:30","id":"635S","lat":"40.734673","lon":"-73.989951","name":"14 St - Union Sq"},{"arrival":"18:50:30","id":"635S","lat":"40.734673","lon":"-73.989951","name":"14 St - Union Sq"},{"arrival":"18:50:00","id":"F20S","lat":"40.686145","lon":"-73.990862","name":"Bergen St"},{"arrival":"18:50:30","id":"220S","lat":"40.81649","lon":"-73.907807","name":"Jackson Av"},{"arrival":"18:50:00","id":"N10N","lat":"40.592721","lon":"-73.97823","name":"86 St"},{"arrival":"18:50:00","id":"F20N","lat":"40.686145","lon":"-73.990862","name":"Bergen St"},{"arrival":"18:50:30","id":"F20N","lat":"40.686145","lon":"-73.990862","name":"Bergen St"},{"arrival":"18:50:00","id":"F20N","lat":"40.686145","lon":"-73.990862","name":"Bergen St"},{"arrival":"18:50:30","id":"252N","lat":"40.661453","lon":"-73.916327","name":"Saratoga Av"},{"arrival":"18:50:00","id":"D10S","lat":"40.833771","lon":"-73.91844","name":"167 St"},{"arrival":"18:50:00","id":"136N","lat":"40.719318","lon":"-74.006886","name":"Franklin St"},{"arrival":"18:50:30","id":"M06N","lat":"40.702762","lon":"-73.90774","name":"Seneca Av"},{"arrival":"18:50:00","id":"136S","lat":"40.719318","lon":"-74.006886","name":"Franklin St"},{"arrival":"18:50:00","id":"124N","lat":"40.77344","lon":"-73.982209","name":"66 St - Lincoln Center"},{"arrival":"18:50:00","id":"M06S","lat":"40.702762","lon":"-73.90774","name":"Seneca Av"},{"arrival":"18:50:00","id":"603N","lat":"40.843863","lon":"-73.836322","name":"Middletown Rd"},{"arrival":"18:50:00","id":"714S","lat":"40.743132","lon":"-73.918435","name":"46 St"},{"arrival":"18:50:30","id":"233N","lat":"40.690545","lon":"-73.985065","name":"Hoyt St"},{"arrival":"18:50:30","id":"233N","lat":"40.690545","lon":"-73.985065","name":"Hoyt St"},{"arrival":"18:50:30","id":"233N","lat":"40.690545","lon":"-73.985065","name":"Hoyt St"},{"arrival":"18:50:00","id":"A61S","lat":"40.680429","lon":"-73.843853","name":"Rockaway Blvd"},{"arrival":"18:50:00","id":"603S","lat":"40.843863","lon":"-73.836322","name":"Middletown Rd"},{"arrival":"18:50:30","id":"714N","lat":"40.743132","lon":"-73.918435","name":"46 St"},{"arrival":"18:50:00","id":"G30N","lat":"40.706092","lon":"-73.950308","name":"Broadway"},{"arrival":"18:50:30","id":"A09S","lat":"40.840719","lon":"-73.939561","name":"168 St"},{"arrival":"18:50:30","id":"A43S","lat":"40.686113","lon":"-73.973946","name":"Lafayette Av"},{"arrival":"18:50:00","id":"A38S","lat":"40.710197","lon":"-74.007691","name":"Fulton St"},{"arrival":"18:50:00","id":"211N","lat":"40.857192","lon":"-73.867615","name":"Pelham Pkwy"},{"arrival":"18:50:30","id":"110S","lat":"40.855225","lon":"-73.929412","name":"191 St"},{"arrival":"18:50:30","id":"A38N","lat":"40.710197","lon":"-74.007691","name":"Fulton St"},{"arrival":"18:50:00","id":"D29S","lat":"40.644031","lon":"-73.964492","name":"Beverly Rd"},{"arrival":"18:50:00","id":"D29S","lat":"40.644031","lon":"-73.964492","name":"Beverly Rd"},{"arrival":"18:50:00","id":"G08N","lat":"40.721691","lon":"-73.844521","name":"Forest Hills - 71 Av"},{"arrival":"18:50:00","id":"G08N","lat":"40.721691","lon":"-73.844521","name":"Forest Hills - 71 Av"},{"arrival":"18:50:00","id":"106S","lat":"40.874561","lon":"-73.909831","name":"Marble Hill - 225 St"},{"arrival":"18:50:00","id":"106S","lat":"40.874561","lon":"-73.909831","name":"Marble Hill - 225 St"},{"arrival":"18:50:00","id":"R30S","lat":"40.690635","lon":"-73.981824","name":"DeKalb Av"},{"arrival":"18:50:00","id":"R30S","lat":"40.690635","lon":"-73.981824","name":"DeKalb Av"},{"arrival":"18:50:30","id":"D34N","lat":"40.617618","lon":"-73.959399","name":"Avenue M"},{"arrival":"18:50:30","id":"D34N","lat":"40.617618","lon":"-73.959399","name":"Avenue M"},{"arrival":"18:50:00","id":"635N","lat":"40.734673","lon":"-73.989951","name":"14 St - Union Sq"},{"arrival":"18:50:00","id":"G05S","lat":"40.702147","lon":"-73.801109","name":"Jamaica Center - Parsons\/Archer"},{"arrival":"18:50:00","id":"J16N","lat":"40.692435","lon":"-73.86001","name":"85 St - Forest Pkwy"},{"arrival":"18:50:00","id":"D34S","lat":"40.617618","lon":"-73.959399","name":"Avenue M"},{"arrival":"18:50:00","id":"M23N","lat":"40.706476","lon":"-74.011056","name":"Broad St"},{"arrival":"18:50:00","id":"G12S","lat":"40.737015","lon":"-73.877223","name":"Grand Av - Newtown"},{"arrival":"18:50:30","id":"A33N","lat":"40.726227","lon":"-74.003739","name":"Spring St"},{"arrival":"18:50:30","id":"A44N","lat":"40.683263","lon":"-73.965838","name":"Clinton - Washington Avs"},{"arrival":"18:50:30","id":"H03N","lat":"40.660476","lon":"-73.830301","name":"Howard Beach - JFK Airport"},{"arrival":"18:50:30","id":"G12N","lat":"40.737015","lon":"-73.877223","name":"Grand Av - Newtown"},{"arrival":"18:50:00","id":"D04S","lat":"40.866978","lon":"-73.893509","name":"Kingsbridge Rd"},{"arrival":"18:50:00","id":"G24N","lat":"40.744065","lon":"-73.949724","name":"21 St"},{"arrival":"18:50:30","id":"G24N","lat":"40.744065","lon":"-73.949724","name":"21 St"},{"arrival":"18:50:00","id":"420N","lat":"40.704817","lon":"-74.014065","name":"Bowling Green"},{"arrival":"18:50:30","id":"420N","lat":"40.704817","lon":"-74.014065","name":"Bowling Green"},{"arrival":"18:50:30","id":"L08S","lat":"40.717304","lon":"-73.956872","name":"Bedford Av"},{"arrival":"18:50:00","id":"F18S","lat":"40.701397","lon":"-73.986751","name":"York St"},{"arrival":"18:50:30","id":"R16S","lat":"40.754672","lon":"-73.986754","name":"Times Sq - 42 St"},{"arrival":"18:50:30","id":"R16S","lat":"40.754672","lon":"-73.986754","name":"Times Sq - 42 St"},{"arrival":"18:50:00","id":"S23S","lat":"40.578965","lon":"-74.109704","name":"Grant City"},{"arrival":"18:50:00","id":"D19N","lat":"40.738228","lon":"-73.996209","name":"14 St"},{"arrival":"18:50:00","id":"D19S","lat":"40.738228","lon":"-73.996209","name":"14 St"},{"arrival":"18:50:00","id":"D19S","lat":"40.738228","lon":"-73.996209","name":"14 St"},{"arrival":"18:50:30","id":"R43S","lat":"40.629742","lon":"-74.02551","name":"77 St"},{"arrival":"18:50:30","id":"236N","lat":"40.680829","lon":"-73.975098","name":"Bergen St"},{"arrival":"18:50:30","id":"721N","lat":"40.742626","lon":"-73.953581","name":"Vernon Blvd - Jackson Av"},{"arrival":"18:50:00","id":"140S","lat":"40.701411","lon":"-74.013205","name":"South Ferry Loop"},{"arrival":"18:50:30","id":"140S","lat":"40.701411","lon":"-74.013205","name":"South Ferry Loop"},{"arrival":"18:50:30","id":"H04N","lat":"40.608382","lon":"-73.815925","name":"Broad Channel"},{"arrival":"18:50:00","id":"B06S","lat":"40.759145","lon":"-73.95326","name":"Roosevelt Island"},{"arrival":"18:50:00","id":"120S","lat":"40.793919","lon":"-73.972323","name":"96 St"},{"arrival":"18:50:00","id":"120S","lat":"40.793919","lon":"-73.972323","name":"96 St"},{"arrival":"18:50:00","id":"120S","lat":"40.793919","lon":"-73.972323","name":"96 St"},{"arrival":"18:50:30","id":"218S","lat":"40.822181","lon":"-73.896736","name":"Intervale Av"},{"arrival":"18:50:30","id":"607N","lat":"40.834255","lon":"-73.851222","name":"Castle Hill Av"},{"arrival":"18:50:00","id":"A15S","lat":"40.811109","lon":"-73.952343","name":"125 St"},{"arrival":"18:50:00","id":"A15N","lat":"40.811109","lon":"-73.952343","name":"125 St"},{"arrival":"18:50:00","id":"A15N","lat":"40.811109","lon":"-73.952343","name":"125 St"},{"arrival":"18:50:30","id":"218N","lat":"40.822181","lon":"-73.896736","name":"Intervale Av"},{"arrival":"18:50:00","id":"627N","lat":"40.77362","lon":"-73.959874","name":"77 St"},{"arrival":"18:50:30","id":"H10N","lat":"40.600066","lon":"-73.761353","name":"Beach 25 St"},{"arrival":"18:50:00","id":"M11N","lat":"40.697207","lon":"-73.935657","name":"Myrtle Av"},{"arrival":"18:50:00","id":"A33S","lat":"40.726227","lon":"-74.003739","name":"Spring St"},{"arrival":"18:50:00","id":"Q01N","lat":"40.718383","lon":"-74.00046","name":"Canal St"},{"arrival":"18:50:00","id":"Q01N","lat":"40.718383","lon":"-74.00046","name":"Canal St"},{"arrival":"18:50:00","id":"Q01N","lat":"40.718383","lon":"-74.00046","name":"Canal St"},{"arrival":"18:50:00","id":"D01N","lat":"40.874811","lon":"-73.878855","name":"Norwood - 205 St"},{"arrival":"18:50:00","id":"D01N","lat":"40.874811","lon":"-73.878855","name":"Norwood - 205 St"},{"arrival":"18:50:00","id":"D39N","lat":"40.586896","lon":"-73.954155","name":"Sheepshead Bay"},{"arrival":"18:50:00","id":"L11N","lat":"40.714565","lon":"-73.944053","name":"Graham Av"},{"arrival":"18:50:30","id":"L11S","lat":"40.714565","lon":"-73.944053","name":"Graham Av"},{"arrival":"18:50:00","id":"A57S","lat":"40.677044","lon":"-73.86505","name":"Grant Av"},{"arrival":"18:50:30","id":"A57S","lat":"40.677044","lon":"-73.86505","name":"Grant Av"},{"arrival":"18:50:00","id":"M08S","lat":"40.69943","lon":"-73.912385","name":"Myrtle - Wyckoff Avs"},{"arrival":"18:50:30","id":"D39S","lat":"40.586896","lon":"-73.954155","name":"Sheepshead Bay"},{"arrival":"18:50:30","id":"D15N","lat":"40.758663","lon":"-73.981329","name":"47-50 Sts - Rockefeller Ctr"},{"arrival":"18:50:00","id":"D15N","lat":"40.758663","lon":"-73.981329","name":"47-50 Sts - Rockefeller Ctr"},{"arrival":"18:50:00","id":"138S","lat":"40.711835","lon":"-74.012188","name":"Cortlandt St"},{"arrival":"18:50:30","id":"R19S","lat":"40.741303","lon":"-73.989344","name":"23 St"},{"arrival":"18:50:00","id":"A18N","lat":"40.796092","lon":"-73.961454","name":"103 St"},{"arrival":"18:50:30","id":"R05N","lat":"40.76182","lon":"-73.925508","name":"Broadway"},{"arrival":"18:50:00","id":"R05N","lat":"40.76182","lon":"-73.925508","name":"Broadway"},{"arrival":"18:50:30","id":"F15S","lat":"40.718611","lon":"-73.988114","name":"Delancey St"},{"arrival":"18:50:30","id":"D38N","lat":"40.595246","lon":"-73.955161","name":"Neck Rd"},{"arrival":"18:50:30","id":"D12N","lat":"40.830135","lon":"-73.938209","name":"155 St"},{"arrival":"18:50:30","id":"630S","lat":"40.757107","lon":"-73.97192","name":"51 St"},{"arrival":"18:50:30","id":"630S","lat":"40.757107","lon":"-73.97192","name":"51 St"},{"arrival":"18:50:30","id":"630S","lat":"40.757107","lon":"-73.97192","name":"51 St"},{"arrival":"18:50:30","id":"D12S","lat":"40.830135","lon":"-73.938209","name":"155 St"},{"arrival":"18:50:00","id":"408N","lat":"40.858407","lon":"-73.903879","name":"183 St"},{"arrival":"18:50:00","id":"408N","lat":"40.858407","lon":"-73.903879","name":"183 St"},{"arrival":"18:50:00","id":"707S","lat":"40.749145","lon":"-73.869527","name":"Junction Blvd"},{"arrival":"18:50:00","id":"241N","lat":"40.667883","lon":"-73.950683","name":"President St"},{"arrival":"18:50:00","id":"241N","lat":"40.667883","lon":"-73.950683","name":"President St"},{"arrival":"18:50:30","id":"133S","lat":"40.733422","lon":"-74.002906","name":"Christopher St - Sheridan Sq"},{"arrival":"18:50:00","id":"F02N","lat":"40.71047","lon":"-73.793604","name":"169 St"},{"arrival":"18:50:00","id":"F02S","lat":"40.71047","lon":"-73.793604","name":"169 St"},{"arrival":"18:50:30","id":"133N","lat":"40.733422","lon":"-74.002906","name":"Christopher St - Sheridan Sq"},{"arrival":"18:50:30","id":"241S","lat":"40.667883","lon":"-73.950683","name":"President St"},{"arrival":"18:50:30","id":"241S","lat":"40.667883","lon":"-73.950683","name":"President St"},{"arrival":"18:50:00","id":"D17S","lat":"40.749719","lon":"-73.987823","name":"34 St - Herald Sq"},{"arrival":"18:50:30","id":"A28S","lat":"40.752287","lon":"-73.993391","name":"34 St - Penn Station"},{"arrival":"18:50:30","id":"A28S","lat":"40.752287","lon":"-73.993391","name":"34 St - Penn Station"},{"arrival":"18:50:30","id":"D07N","lat":"40.85041","lon":"-73.905227","name":"Tremont Av"},{"arrival":"18:50:30","id":"A32N","lat":"40.732338","lon":"-74.000495","name":"W 4 St"},{"arrival":"18:50:30","id":"A32N","lat":"40.732338","lon":"-74.000495","name":"W 4 St"},{"arrival":"18:50:00","id":"G15S","lat":"40.749669","lon":"-73.898453","name":"65 St"},{"arrival":"18:50:30","id":"A60N","lat":"40.679843","lon":"-73.85147","name":"88 St"},{"arrival":"18:50:30","id":"E01S","lat":"40.712582","lon":"-74.009781","name":"World Trade Center"},{"arrival":"18:50:30","id":"H15S","lat":"40.580903","lon":"-73.835592","name":"Rockaway Park - Beach 116 St"},{"arrival":"18:50:00","id":"G32S","lat":"40.694568","lon":"-73.949046","name":"Myrtle - Willoughby Avs"},{"arrival":"18:50:00","id":"A51S","lat":"40.678334","lon":"-73.905316","name":"Broadway Jct"},{"arrival":"18:50:30","id":"R17N","lat":"40.749567","lon":"-73.98795","name":"34 St - Herald Sq"},{"arrival":"18:50:30","id":"632S","lat":"40.746081","lon":"-73.982076","name":"33 St"},{"arrival":"18:50:30","id":"254S","lat":"40.663515","lon":"-73.902447","name":"Junius St"},{"arrival":"18:50:00","id":"B16S","lat":"40.626472","lon":"-73.996895","name":"62 St"},{"arrival":"18:50:30","id":"243N","lat":"40.656652","lon":"-73.9502","name":"Winthrop St"},{"arrival":"18:50:30","id":"109N","lat":"40.860531","lon":"-73.925536","name":"Dyckman St"},{"arrival":"18:50:30","id":"F12S","lat":"40.760167","lon":"-73.975224","name":"5 Av\/53 St"},{"arrival":"18:50:00","id":"131S","lat":"40.74104","lon":"-73.997871","name":"18 St"},{"arrival":"18:50:30","id":"610N","lat":"40.829521","lon":"-73.874516","name":"Morrison Av- Sound View"},{"arrival":"18:50:00","id":"626S","lat":"40.779492","lon":"-73.955589","name":"86 St"},{"arrival":"18:50:00","id":"626S","lat":"40.779492","lon":"-73.955589","name":"86 St"},{"arrival":"18:50:00","id":"A14S","lat":"40.817894","lon":"-73.947649","name":"135 St"},{"arrival":"18:50:30","id":"626N","lat":"40.779492","lon":"-73.955589","name":"86 St"},{"arrival":"18:50:30","id":"713S","lat":"40.744149","lon":"-73.912549","name":"52 St"},{"arrival":"18:50:30","id":"713S","lat":"40.744149","lon":"-73.912549","name":"52 St"},{"arrival":"18:50:00","id":"405S","lat":"40.873412","lon":"-73.890064","name":"Bedford Park Blvd - Lehman College"},{"arrival":"18:50:00","id":"405S","lat":"40.873412","lon":"-73.890064","name":"Bedford Park Blvd - Lehman College"},{"arrival":"18:50:30","id":"L22S","lat":"40.678856","lon":"-73.90324","name":"Broadway Jct"},{"arrival":"18:50:00","id":"R22S","lat":"40.724329","lon":"-73.997702","name":"Prince St"},{"arrival":"18:50:30","id":"A03S","lat":"40.865491","lon":"-73.927271","name":"Dyckman St"},{"arrival":"18:50:30","id":"107N","lat":"40.869444","lon":"-73.915279","name":"215 St"},{"arrival":"18:50:00","id":"212N","lat":"40.848828","lon":"-73.868457","name":"Bronx Park East"},{"arrival":"18:50:00","id":"621N","lat":"40.804138","lon":"-73.937594","name":"125 St"},{"arrival":"18:50:00","id":"R08S","lat":"40.752882","lon":"-73.932755","name":"39 Av"},{"arrival":"18:50:00","id":"A27S","lat":"40.757308","lon":"-73.989735","name":"42 St - Port Authority Bus Terminal"},{"arrival":"18:50:30","id":"D21N","lat":"40.725297","lon":"-73.996204","name":"Broadway-Lafayette St"},{"arrival":"18:50:30","id":"D21N","lat":"40.725297","lon":"-73.996204","name":"Broadway-Lafayette St"},{"arrival":"18:50:30","id":"D21N","lat":"40.725297","lon":"-73.996204","name":"Broadway-Lafayette St"},{"arrival":"18:50:30","id":"J22N","lat":"40.679947","lon":"-73.884639","name":"Cleveland St"},{"arrival":"18:50:30","id":"R31N","lat":"40.683666","lon":"-73.97881","name":"Atlantic Av - Barclays Ctr"},{"arrival":"18:50:00","id":"423N","lat":"40.692404","lon":"-73.990151","name":"Borough Hall"},{"arrival":"18:50:30","id":"D16S","lat":"40.754222","lon":"-73.984569","name":"42 St - Bryant Pk"},{"arrival":"18:50:30","id":"J31S","lat":"40.693342","lon":"-73.928814","name":"Kosciusko St"},{"arrival":"18:50:30","id":"A24N","lat":"40.768296","lon":"-73.981736","name":"59 St - Columbus Circle"},{"arrival":"18:50:30","id":"A24N","lat":"40.768296","lon":"-73.981736","name":"59 St - Columbus Circle"},{"arrival":"18:50:00","id":"D13N","lat":"40.824783","lon":"-73.944216","name":"145 St"},{"arrival":"18:50:00","id":"D13N","lat":"40.824783","lon":"-73.944216","name":"145 St"},{"arrival":"18:50:30","id":"D13N","lat":"40.824783","lon":"-73.944216","name":"145 St"},{"arrival":"18:50:00","id":"631S","lat":"40.751776","lon":"-73.976848","name":"Grand Central - 42 St"},{"arrival":"18:50:00","id":"631S","lat":"40.751776","lon":"-73.976848","name":"Grand Central - 42 St"},{"arrival":"18:50:00","id":"631S","lat":"40.751776","lon":"-73.976848","name":"Grand Central - 42 St"},{"arrival":"18:50:30","id":"128N","lat":"40.750373","lon":"-73.991057","name":"34 St - Penn Station"},{"arrival":"18:50:30","id":"128N","lat":"40.750373","lon":"-73.991057","name":"34 St - Penn Station"},{"arrival":"18:50:00","id":"128N","lat":"40.750373","lon":"-73.991057","name":"34 St - Penn Station"},{"arrival":"18:50:00","id":"128N","lat":"40.750373","lon":"-73.991057","name":"34 St - Penn Station"},{"arrival":"18:50:00","id":"631N","lat":"40.751776","lon":"-73.976848","name":"Grand Central - 42 St"},{"arrival":"18:50:00","id":"631N","lat":"40.751776","lon":"-73.976848","name":"Grand Central - 42 St"},{"arrival":"18:50:00","id":"128S","lat":"40.750373","lon":"-73.991057","name":"34 St - Penn Station"},{"arrival":"18:50:00","id":"128S","lat":"40.750373","lon":"-73.991057","name":"34 St - Penn Station"},{"arrival":"18:50:00","id":"A24S","lat":"40.768296","lon":"-73.981736","name":"59 St - Columbus Circle"},{"arrival":"18:50:00","id":"423S","lat":"40.692404","lon":"-73.990151","name":"Borough Hall"},{"arrival":"18:50:00","id":"A36S","lat":"40.714111","lon":"-74.008585","name":"Chambers St"},{"arrival":"18:50:30","id":"F01S","lat":"40.712646","lon":"-73.783817","name":"Jamaica - 179 St"},{"arrival":"18:50:30","id":"R13S","lat":"40.764811","lon":"-73.973347","name":"5 Av\/59 St"},{"arrival":"18:50:30","id":"237S","lat":"40.675235","lon":"-73.971046","name":"Grand Army Plaza"},{"arrival":"18:50:30","id":"237S","lat":"40.675235","lon":"-73.971046","name":"Grand Army Plaza"},{"arrival":"18:50:00","id":"237S","lat":"40.675235","lon":"-73.971046","name":"Grand Army Plaza"},{"arrival":"18:50:00","id":"L01N","lat":"40.739777","lon":"-74.002578","name":"8 Av"},{"arrival":"18:50:00","id":"L01N","lat":"40.739777","lon":"-74.002578","name":"8 Av"},{"arrival":"18:50:00","id":"505S","lat":"40.854364","lon":"-73.860495","name":"Morris Park"},{"arrival":"18:50:00","id":"G33S","lat":"40.689627","lon":"-73.953522","name":"Bedford - Nostrand Avs"},{"arrival":"18:50:00","id":"402S","lat":"40.87975","lon":"-73.884655","name":"Mosholu Pkwy"},{"arrival":"18:50:30","id":"237N","lat":"40.675235","lon":"-73.971046","name":"Grand Army Plaza"},{"arrival":"18:50:30","id":"237N","lat":"40.675235","lon":"-73.971046","name":"Grand Army Plaza"},{"arrival":"18:50:00","id":"R42S","lat":"40.634967","lon":"-74.023377","name":"Bay Ridge Av"},{"arrival":"18:50:30","id":"121N","lat":"40.788644","lon":"-73.976218","name":"86 St"},{"arrival":"18:50:30","id":"F24N","lat":"40.666271","lon":"-73.980305","name":"7 Av"},{"arrival":"18:50:00","id":"F24N","lat":"40.666271","lon":"-73.980305","name":"7 Av"},{"arrival":"18:50:00","id":"121S","lat":"40.788644","lon":"-73.976218","name":"86 St"},{"arrival":"18:50:00","id":"114N","lat":"40.826551","lon":"-73.95036","name":"145 St"},{"arrival":"18:50:00","id":"622N","lat":"40.798629","lon":"-73.941617","name":"116 St"},{"arrival":"18:50:00","id":"G06S","lat":"40.700486","lon":"-73.807969","name":"Sutphin Blvd - Archer Av - JFK Airport"},{"arrival":"18:50:00","id":"614S","lat":"40.816104","lon":"-73.896435","name":"Longwood Av"},{"arrival":"18:50:30","id":"614S","lat":"40.816104","lon":"-73.896435","name":"Longwood Av"},{"arrival":"18:50:30","id":"A06N","lat":"40.851695","lon":"-73.937969","name":"181 St"},{"arrival":"18:50:00","id":"418S","lat":"40.710368","lon":"-74.009509","name":"Fulton St"},{"arrival":"18:50:00","id":"G06N","lat":"40.700486","lon":"-73.807969","name":"Sutphin Blvd - Archer Av - JFK Airport"},{"arrival":"18:50:00","id":"902N","lat":"40.755983","lon":"-73.986229","name":"Times Sq - 42 St"},{"arrival":"18:50:00","id":"636N","lat":"40.730054","lon":"-73.99107","name":"Astor Pl"},{"arrival":"18:50:30","id":"636N","lat":"40.730054","lon":"-73.99107","name":"Astor Pl"},{"arrival":"18:50:00","id":"215N","lat":"40.837288","lon":"-73.887734","name":"174 St"},{"arrival":"18:50:00","id":"215N","lat":"40.837288","lon":"-73.887734","name":"174 St"},{"arrival":"18:50:00","id":"215N","lat":"40.837288","lon":"-73.887734","name":"174 St"},{"arrival":"18:50:00","id":"F34N","lat":"40.608944","lon":"-73.973022","name":"Avenue P"},{"arrival":"18:50:00","id":"419N","lat":"40.707557","lon":"-74.011862","name":"Wall St"},{"arrival":"18:50:00","id":"238N","lat":"40.671987","lon":"-73.964375","name":"Eastern Pkwy - Brooklyn Museum"},{"arrival":"18:50:00","id":"A40N","lat":"40.699337","lon":"-73.990531","name":"High St"},{"arrival":"18:50:30","id":"L16N","lat":"40.703811","lon":"-73.918425","name":"DeKalb Av"},{"arrival":"18:50:30","id":"D43S","lat":"40.577422","lon":"-73.981233","name":"Coney Island - Stillwell Av"},{"arrival":"18:50:30","id":"D43S","lat":"40.577422","lon":"-73.981233","name":"Coney Island - Stillwell Av"},{"arrival":"18:50:30","id":"103N","lat":"40.884667","lon":"-73.90087","name":"238 St"},{"arrival":"18:50:30","id":"718S","lat":"40.750582","lon":"-73.940202","name":"Queensboro Plaza"},{"arrival":"18:50:00","id":"718S","lat":"40.750582","lon":"-73.940202","name":"Queensboro Plaza"},{"arrival":"18:50:30","id":"718S","lat":"40.750582","lon":"-73.940202","name":"Queensboro Plaza"},{"arrival":"18:50:30","id":"D43N","lat":"40.577422","lon":"-73.981233","name":"Coney Island - Stillwell Av"},{"arrival":"18:50:00","id":"L24N","lat":"40.675345","lon":"-73.903097","name":"Atlantic Av"},{"arrival":"18:50:30","id":"A40S","lat":"40.699337","lon":"-73.990531","name":"High St"},{"arrival":"18:50:30","id":"A40S","lat":"40.699337","lon":"-73.990531","name":"High St"},{"arrival":"18:50:00","id":"S25S","lat":"40.588849","lon":"-74.09609","name":"Dongan Hills"},{"arrival":"18:50:00","id":"S25S","lat":"40.588849","lon":"-74.09609","name":"Dongan Hills"},{"arrival":"18:50:00","id":"F33N","lat":"40.61514","lon":"-73.974197","name":"Avenue N"},{"arrival":"18:50:30","id":"113S","lat":"40.834041","lon":"-73.94489","name":"157 St"},{"arrival":"18:50:30","id":"R04N","lat":"40.766779","lon":"-73.921479","name":"30 Av"},{"arrival":"18:50:30","id":"L03N","lat":"40.734789","lon":"-73.99073","name":"Union Sq - 14 St"},{"arrival":"18:50:30","id":"116N","lat":"40.815581","lon":"-73.958372","name":"125 St"},{"arrival":"18:50:00","id":"N09S","lat":"40.597473","lon":"-73.979137","name":"Avenue U"},{"arrival":"18:50:00","id":"N09S","lat":"40.597473","lon":"-73.979137","name":"Avenue U"},{"arrival":"18:50:30","id":"302S","lat":"40.820421","lon":"-73.936245","name":"145 St"},{"arrival":"18:50:30","id":"116S","lat":"40.815581","lon":"-73.958372","name":"125 St"},{"arrival":"18:50:00","id":"J16S","lat":"40.692435","lon":"-73.86001","name":"85 St - Forest Pkwy"},{"arrival":"18:50:30","id":"L03S","lat":"40.734789","lon":"-73.99073","name":"Union Sq - 14 St"},{"arrival":"18:50:30","id":"L03S","lat":"40.734789","lon":"-73.99073","name":"Union Sq - 14 St"},{"arrival":"18:50:30","id":"D20N","lat":"40.732338","lon":"-74.000495","name":"W 4 St"},{"arrival":"18:50:00","id":"D20S","lat":"40.732338","lon":"-74.000495","name":"W 4 St"},{"arrival":"18:50:30","id":"D20S","lat":"40.732338","lon":"-74.000495","name":"W 4 St"},{"arrival":"18:50:00","id":"227N","lat":"40.799075","lon":"-73.951822","name":"Central Park North (110 St)"},{"arrival":"18:50:00","id":"227N","lat":"40.799075","lon":"-73.951822","name":"Central Park North (110 St)"},{"arrival":"18:50:00","id":"R24S","lat":"40.713282","lon":"-74.006978","name":"City Hall"},{"arrival":"18:50:00","id":"139N","lat":"40.707513","lon":"-74.013783","name":"Rector St"},{"arrival":"18:50:00","id":"G26S","lat":"40.731352","lon":"-73.954449","name":"Greenpoint Av"},{"arrival":"18:50:00","id":"G26S","lat":"40.731352","lon":"-73.954449","name":"Greenpoint Av"},{"arrival":"18:50:30","id":"G26S","lat":"40.731352","lon":"-73.954449","name":"Greenpoint Av"},{"arrival":"18:50:30","id":"F03S","lat":"40.707564","lon":"-73.803326","name":"Parsons Blvd"},{"arrival":"18:50:30","id":"L10N","lat":"40.714063","lon":"-73.950275","name":"Lorimer St"},{"arrival":"18:50:00","id":"D06S","lat":"40.856093","lon":"-73.900741","name":"182-183 Sts"},{"arrival":"18:50:00","id":"D14N","lat":"40.762862","lon":"-73.981637","name":"7 Av"},{"arrival":"18:50:30","id":"A46S","lat":"40.680438","lon":"-73.950426","name":"Nostrand Av"},{"arrival":"18:50:30","id":"R06S","lat":"40.756804","lon":"-73.929575","name":"36 Av"},{"arrival":"18:50:30","id":"R18S","lat":"40.745494","lon":"-73.988691","name":"28 St"},{"arrival":"18:50:30","id":"101S","lat":"40.889248","lon":"-73.898583","name":"Van Cortlandt Park - 242 St"},{"arrival":"18:50:00","id":"B20N","lat":"40.604556","lon":"-73.998168","name":"20 Av"},{"arrival":"18:50:00","id":"B20N","lat":"40.604556","lon":"-73.998168","name":"20 Av"},{"arrival":"18:50:00","id":"A51N","lat":"40.678334","lon":"-73.905316","name":"Broadway Jct"},{"arrival":"18:50:00","id":"A51N","lat":"40.678334","lon":"-73.905316","name":"Broadway Jct"},{"arrival":"18:50:30","id":"A51N","lat":"40.678334","lon":"-73.905316","name":"Broadway Jct"},{"arrival":"18:50:30","id":"101N","lat":"40.889248","lon":"-73.898583","name":"Van Cortlandt Park - 242 St"},{"arrival":"18:50:30","id":"R30N","lat":"40.690635","lon":"-73.981824","name":"DeKalb Av"},{"arrival":"18:50:30","id":"226S","lat":"40.802098","lon":"-73.949625","name":"116 St"},{"arrival":"18:50:30","id":"226S","lat":"40.802098","lon":"-73.949625","name":"116 St"},{"arrival":"18:50:30","id":"D16N","lat":"40.754222","lon":"-73.984569","name":"42 St - Bryant Pk"},{"arrival":"18:50:00","id":"R41N","lat":"40.641362","lon":"-74.017881","name":"59 St"},{"arrival":"18:50:00","id":"R41N","lat":"40.641362","lon":"-74.017881","name":"59 St"},{"arrival":"18:50:00","id":"637N","lat":"40.725915","lon":"-73.994659","name":"Bleecker St"},{"arrival":"18:50:30","id":"234N","lat":"40.688246","lon":"-73.980492","name":"Nevins St"},{"arrival":"18:50:00","id":"126N","lat":"40.761728","lon":"-73.983849","name":"50 St"},{"arrival":"18:50:00","id":"J19N","lat":"40.689941","lon":"-73.87255","name":"Cypress Hills"},{"arrival":"18:50:00","id":"250N","lat":"40.668897","lon":"-73.932942","name":"Crown Hts - Utica Av"},{"arrival":"18:50:30","id":"B04N","lat":"40.754203","lon":"-73.942836","name":"21 St - Queensbridge"},{"arrival":"18:50:30","id":"250S","lat":"40.668897","lon":"-73.932942","name":"Crown Hts - Utica Av"},{"arrival":"18:50:30","id":"250S","lat":"40.668897","lon":"-73.932942","name":"Crown Hts - Utica Av"},{"arrival":"18:50:30","id":"250S","lat":"40.668897","lon":"-73.932942","name":"Crown Hts - Utica Av"},{"arrival":"18:50:00","id":"F09N","lat":"40.747846","lon":"-73.946","name":"Court Sq"},{"arrival":"18:50:00","id":"A22N","lat":"40.775594","lon":"-73.97641","name":"72 St"},{"arrival":"18:50:00","id":"611S","lat":"40.828584","lon":"-73.879159","name":"Elder Av"},{"arrival":"18:50:00","id":"F05S","lat":"40.709179","lon":"-73.820574","name":"Briarwood - Van Wyck Blvd"},{"arrival":"18:50:30","id":"724N","lat":"40.753821","lon":"-73.981963","name":"5 Av"},{"arrival":"18:50:30","id":"724S","lat":"40.753821","lon":"-73.981963","name":"5 Av"},{"arrival":"18:50:30","id":"611N","lat":"40.828584","lon":"-73.879159","name":"Elder Av"},{"arrival":"18:50:00","id":"L21S","lat":"40.682829","lon":"-73.905249","name":"Bushwick Av - Aberdeen St"},{"arrival":"18:50:30","id":"229N","lat":"40.709416","lon":"-74.006571","name":"Fulton St"},{"arrival":"18:50:30","id":"618S","lat":"40.807566","lon":"-73.91924","name":"Brook Av"},{"arrival":"18:50:00","id":"A41S","lat":"40.692338","lon":"-73.987342","name":"Jay St - MetroTech"},{"arrival":"18:50:00","id":"F05N","lat":"40.709179","lon":"-73.820574","name":"Briarwood - Van Wyck Blvd"},{"arrival":"18:50:30","id":"F05N","lat":"40.709179","lon":"-73.820574","name":"Briarwood - Van Wyck Blvd"},{"arrival":"18:50:30","id":"104S","lat":"40.878856","lon":"-73.904834","name":"231 St"},{"arrival":"18:50:30","id":"A55S","lat":"40.675377","lon":"-73.872106","name":"Euclid Av"},{"arrival":"18:50:30","id":"J14S","lat":"40.695178","lon":"-73.84433","name":"104 St"},{"arrival":"18:50:30","id":"L24S","lat":"40.675345","lon":"-73.903097","name":"Atlantic Av"},{"arrival":"18:50:00","id":"A48N","lat":"40.679364","lon":"-73.930729","name":"Utica Av"},{"arrival":"18:50:30","id":"G10S","lat":"40.729846","lon":"-73.861604","name":"63 Dr - Rego Park"},{"arrival":"18:50:00","id":"246S","lat":"40.639967","lon":"-73.948411","name":"Newkirk Av"},{"arrival":"18:50:00","id":"A25S","lat":"40.762456","lon":"-73.985984","name":"50 St"},{"arrival":"18:50:30","id":"705N","lat":"40.75173","lon":"-73.855334","name":"111 St"},{"arrival":"18:50:00","id":"R14N","lat":"40.764664","lon":"-73.980658","name":"57 St - 7 Av"},{"arrival":"18:50:00","id":"R14N","lat":"40.764664","lon":"-73.980658","name":"57 St - 7 Av"},{"arrival":"18:50:00","id":"119N","lat":"40.799446","lon":"-73.968379","name":"103 St"},{"arrival":"18:50:30","id":"M11S","lat":"40.697207","lon":"-73.935657","name":"Myrtle Av"},{"arrival":"18:50:30","id":"M11S","lat":"40.697207","lon":"-73.935657","name":"Myrtle Av"},{"arrival":"18:50:30","id":"G21N","lat":"40.748973","lon":"-73.937243","name":"Queens Plaza"},{"arrival":"18:50:30","id":"G21N","lat":"40.748973","lon":"-73.937243","name":"Queens Plaza"},{"arrival":"18:50:00","id":"G21N","lat":"40.748973","lon":"-73.937243","name":"Queens Plaza"},{"arrival":"18:50:00","id":"G21N","lat":"40.748973","lon":"-73.937243","name":"Queens Plaza"},{"arrival":"18:50:00","id":"A31N","lat":"40.740893","lon":"-74.00169","name":"14 St"},{"arrival":"18:50:00","id":"119S","lat":"40.799446","lon":"-73.968379","name":"103 St"},{"arrival":"18:50:00","id":"R14S","lat":"40.764664","lon":"-73.980658","name":"57 St - 7 Av"},{"arrival":"18:50:30","id":"230S","lat":"40.706821","lon":"-74.0091","name":"Wall St"},{"arrival":"18:50:00","id":"230S","lat":"40.706821","lon":"-74.0091","name":"Wall St"},{"arrival":"18:50:30","id":"416S","lat":"40.813224","lon":"-73.929849","name":"138 St - Grand Concourse"},{"arrival":"18:50:30","id":"L26S","lat":"40.664038","lon":"-73.900571","name":"Livonia Av"},{"arrival":"18:50:30","id":"230N","lat":"40.706821","lon":"-74.0091","name":"Wall St"},{"arrival":"18:50:30","id":"230N","lat":"40.706821","lon":"-74.0091","name":"Wall St"},{"arrival":"18:50:30","id":"416N","lat":"40.813224","lon":"-73.929849","name":"138 St - Grand Concourse"},{"arrival":"18:50:30","id":"416N","lat":"40.813224","lon":"-73.929849","name":"138 St - Grand Concourse"},{"arrival":"18:50:30","id":"501N","lat":"40.8883","lon":"-73.830834","name":"Eastchester - Dyre Av"},{"arrival":"18:50:30","id":"122N","lat":"40.783934","lon":"-73.979917","name":"79 St"},{"arrival":"18:50:00","id":"122S","lat":"40.783934","lon":"-73.979917","name":"79 St"},{"arrival":"18:50:00","id":"H08N","lat":"40.592943","lon":"-73.776013","name":"Beach 44 St"},{"arrival":"18:50:00","id":"709N","lat":"40.747659","lon":"-73.883697","name":"82 St - Jackson Hts"},{"arrival":"18:50:00","id":"F23S","lat":"40.670272","lon":"-73.989779","name":"4 Av"},{"arrival":"18:50:30","id":"F23S","lat":"40.670272","lon":"-73.989779","name":"4 Av"},{"arrival":"18:50:30","id":"625S","lat":"40.785672","lon":"-73.95107","name":"96 St"},{"arrival":"18:50:30","id":"L19N","lat":"40.695602","lon":"-73.904084","name":"Halsey St"},{"arrival":"18:50:30","id":"D25N","lat":"40.67705","lon":"-73.972367","name":"7 Av"},{"arrival":"18:50:00","id":"239S","lat":"40.670682","lon":"-73.958131","name":"Franklin Av"},{"arrival":"18:50:00","id":"239S","lat":"40.670682","lon":"-73.958131","name":"Franklin Av"},{"arrival":"18:50:00","id":"R35S","lat":"40.660397","lon":"-73.998091","name":"25 St"},{"arrival":"18:50:00","id":"R35S","lat":"40.660397","lon":"-73.998091","name":"25 St"},{"arrival":"18:50:00","id":"239N","lat":"40.670682","lon":"-73.958131","name":"Franklin Av"},{"arrival":"18:50:00","id":"M12S","lat":"40.70026","lon":"-73.941126","name":"Flushing Av"},{"arrival":"18:50:00","id":"709S","lat":"40.747659","lon":"-73.883697","name":"82 St - Jackson Hts"},{"arrival":"18:50:00","id":"709S","lat":"40.747659","lon":"-73.883697","name":"82 St - Jackson Hts"},{"arrival":"18:50:30","id":"715N","lat":"40.743781","lon":"-73.924016","name":"40 St"},{"arrival":"18:50:00","id":"715N","lat":"40.743781","lon":"-73.924016","name":"40 St"},{"arrival":"18:50:00","id":"M16N","lat":"40.708359","lon":"-73.957757","name":"Marcy Av"},{"arrival":"18:50:00","id":"725N","lat":"40.755477","lon":"-73.987691","name":"Times Sq - 42 St"},{"arrival":"18:50:30","id":"228S","lat":"40.713051","lon":"-74.008811","name":"Park Pl"},{"arrival":"18:50:30","id":"725S","lat":"40.755477","lon":"-73.987691","name":"Times Sq - 42 St"},{"arrival":"18:50:00","id":"232S","lat":"40.693219","lon":"-73.989998","name":"Borough Hall"},{"arrival":"18:50:00","id":"232S","lat":"40.693219","lon":"-73.989998","name":"Borough Hall"},{"arrival":"18:50:00","id":"901N","lat":"40.752769","lon":"-73.979189","name":"Grand Central - 42 St"},{"arrival":"18:50:00","id":"901N","lat":"40.752769","lon":"-73.979189","name":"Grand Central - 42 St"},{"arrival":"18:50:00","id":"J20S","lat":"40.683194","lon":"-73.873785","name":"Crescent St"},{"arrival":"18:50:30","id":"D42S","lat":"40.576127","lon":"-73.975939","name":"W 8 St - NY Aquarium"},{"arrival":"18:50:30","id":"L20N","lat":"40.688764","lon":"-73.904046","name":"Wilson Av"},{"arrival":"18:50:30","id":"407N","lat":"40.862803","lon":"-73.901034","name":"Fordham Rd"},{"arrival":"18:50:00","id":"G09S","lat":"40.726523","lon":"-73.852719","name":"67 Av"},{"arrival":"18:50:30","id":"901S","lat":"40.752769","lon":"-73.979189","name":"Grand Central - 42 St"},{"arrival":"18:50:30","id":"901S","lat":"40.752769","lon":"-73.979189","name":"Grand Central - 42 St"},{"arrival":"18:50:30","id":"901S","lat":"40.752769","lon":"-73.979189","name":"Grand Central - 42 St"},{"arrival":"18:50:00","id":"A05N","lat":"40.859022","lon":"-73.93418","name":"190 St"},{"arrival":"18:50:00","id":"A05N","lat":"40.859022","lon":"-73.93418","name":"190 St"},{"arrival":"18:50:00","id":"G09N","lat":"40.726523","lon":"-73.852719","name":"67 Av"},{"arrival":"18:50:00","id":"115S","lat":"40.822008","lon":"-73.953676","name":"137 St - City College"},{"arrival":"18:50:00","id":"D27N","lat":"40.655292","lon":"-73.961495","name":"Parkside Av"},{"arrival":"18:50:00","id":"D27N","lat":"40.655292","lon":"-73.961495","name":"Parkside Av"},{"arrival":"18:50:30","id":"A21S","lat":"40.781433","lon":"-73.972143","name":"81 St - Museum of Natural History"},{"arrival":"18:50:00","id":"D27S","lat":"40.655292","lon":"-73.961495","name":"Parkside Av"},{"arrival":"18:50:00","id":"719N","lat":"40.747023","lon":"-73.945264","name":"Court Sq"},{"arrival":"18:50:30","id":"719N","lat":"40.747023","lon":"-73.945264","name":"Court Sq"},{"arrival":"18:50:00","id":"D42N","lat":"40.576127","lon":"-73.975939","name":"W 8 St - NY Aquarium"},{"arrival":"18:50:00","id":"702S","lat":"40.754622","lon":"-73.845625","name":"Mets - Willets Point"},{"arrival":"18:50:00","id":"A22S","lat":"40.775594","lon":"-73.97641","name":"72 St"},{"arrival":"18:50:30","id":"A30S","lat":"40.745906","lon":"-73.998041","name":"23 St"},{"arrival":"18:50:00","id":"702N","lat":"40.754622","lon":"-73.845625","name":"Mets - Willets Point"},{"arrival":"18:50:30","id":"225N","lat":"40.807754","lon":"-73.945495","name":"125 St"},{"arrival":"18:50:30","id":"L17S","lat":"40.699814","lon":"-73.911586","name":"Myrtle - Wyckoff Avs"},{"arrival":"18:50:00","id":"L17S","lat":"40.699814","lon":"-73.911586","name":"Myrtle - Wyckoff Avs"},{"arrival":"18:50:00","id":"H04S","lat":"40.608382","lon":"-73.815925","name":"Broad Channel"},{"arrival":"18:50:30","id":"R15S","lat":"40.759901","lon":"-73.984139","name":"49 St"},{"arrival":"18:50:30","id":"118N","lat":"40.803967","lon":"-73.966847","name":"Cathedral Pkwy"},{"arrival":"18:50:00","id":"S20N","lat":"40.5564","lon":"-74.136907","name":"Bay Terrace"},{"arrival":"18:50:00","id":"S20N","lat":"40.5564","lon":"-74.136907","name":"Bay Terrace"},{"arrival":"18:50:30","id":"B21S","lat":"40.601875","lon":"-73.993728","name":"Bay Pkwy"},{"arrival":"18:50:30","id":"R01S","lat":"40.775036","lon":"-73.912034","name":"Astoria - Ditmars Blvd"},{"arrival":"18:50:30","id":"R01S","lat":"40.775036","lon":"-73.912034","name":"Astoria - Ditmars Blvd"},{"arrival":"18:50:00","id":"L25N","lat":"40.669367","lon":"-73.901975","name":"Sutter Av"},{"arrival":"18:50:30","id":"R40N","lat":"40.645069","lon":"-74.014034","name":"53 St"},{"arrival":"18:50:30","id":"R40N","lat":"40.645069","lon":"-74.014034","name":"53 St"},{"arrival":"18:50:30","id":"G20S","lat":"40.752039","lon":"-73.928781","name":"36 St"},{"arrival":"18:50:00","id":"B14N","lat":"40.63626","lon":"-73.994791","name":"50 St"},{"arrival":"18:50:00","id":"B14N","lat":"40.63626","lon":"-73.994791","name":"50 St"},{"arrival":"18:50:30","id":"127S","lat":"40.75529","lon":"-73.987495","name":"Times Sq - 42 St"},{"arrival":"18:50:00","id":"127S","lat":"40.75529","lon":"-73.987495","name":"Times Sq - 42 St"},{"arrival":"18:50:30","id":"137N","lat":"40.715478","lon":"-74.009266","name":"Chambers St"},{"arrival":"18:50:30","id":"251N","lat":"40.664717","lon":"-73.92261","name":"Sutter Av - Rutland Rd"},{"arrival":"18:50:30","id":"251N","lat":"40.664717","lon":"-73.92261","name":"Sutter Av - Rutland Rd"},{"arrival":"18:50:30","id":"M05N","lat":"40.704423","lon":"-73.903077","name":"Forest Av"},{"arrival":"18:50:00","id":"F26S","lat":"40.650782","lon":"-73.975776","name":"Fort Hamilton Pkwy"},{"arrival":"18:50:00","id":"F26S","lat":"40.650782","lon":"-73.975776","name":"Fort Hamilton Pkwy"},{"arrival":"18:50:30","id":"251S","lat":"40.664717","lon":"-73.92261","name":"Sutter Av - Rutland Rd"},{"arrival":"18:50:00","id":"251S","lat":"40.664717","lon":"-73.92261","name":"Sutter Av - Rutland Rd"},{"arrival":"18:50:00","id":"137S","lat":"40.715478","lon":"-74.009266","name":"Chambers St"},{"arrival":"18:50:00","id":"127N","lat":"40.75529","lon":"-73.987495","name":"Times Sq - 42 St"},{"arrival":"18:50:00","id":"217S","lat":"40.824073","lon":"-73.893064","name":"Simpson St"},{"arrival":"18:50:30","id":"217S","lat":"40.824073","lon":"-73.893064","name":"Simpson St"},{"arrival":"18:50:00","id":"616N","lat":"40.808719","lon":"-73.907657","name":"E 143 St - St Mary's St"},{"arrival":"18:50:30","id":"616N","lat":"40.808719","lon":"-73.907657","name":"E 143 St - St Mary's St"},{"arrival":"18:50:30","id":"A16S","lat":"40.805085","lon":"-73.954882","name":"116 St"},{"arrival":"18:50:00","id":"711N","lat":"40.746325","lon":"-73.896403","name":"69 St"},{"arrival":"18:50:00","id":"711S","lat":"40.746325","lon":"-73.896403","name":"69 St"},{"arrival":"18:50:30","id":"F38N","lat":"40.58962","lon":"-73.97425","name":"Avenue X"},{"arrival":"18:50:30","id":"217N","lat":"40.824073","lon":"-73.893064","name":"Simpson St"},{"arrival":"18:50:30","id":"217N","lat":"40.824073","lon":"-73.893064","name":"Simpson St"},{"arrival":"18:50:00","id":"207S","lat":"40.883895","lon":"-73.862633","name":"219 St"},{"arrival":"18:50:00","id":"207S","lat":"40.883895","lon":"-73.862633","name":"219 St"},{"arrival":"18:50:00","id":"S15N","lat":"40.525507","lon":"-74.200064","name":"Prince's Bay"},{"arrival":"18:50:30","id":"R20S","lat":"40.735736","lon":"-73.990568","name":"14 St - Union Sq"},{"arrival":"18:50:00","id":"208N","lat":"40.87785","lon":"-73.866256","name":"Gun Hill Rd"},{"arrival":"18:50:00","id":"208N","lat":"40.87785","lon":"-73.866256","name":"Gun Hill Rd"},{"arrival":"18:50:00","id":"208N","lat":"40.87785","lon":"-73.866256","name":"Gun Hill Rd"},{"arrival":"18:50:30","id":"231N","lat":"40.697466","lon":"-73.993086","name":"Clark St"},{"arrival":"18:50:30","id":"208S","lat":"40.87785","lon":"-73.866256","name":"Gun Hill Rd"},{"arrival":"18:50:00","id":"R20N","lat":"40.735736","lon":"-73.990568","name":"14 St - Union Sq"},{"arrival":"18:50:30","id":"413N","lat":"40.835537","lon":"-73.9214","name":"167 St"},{"arrival":"18:50:30","id":"D24S","lat":"40.68446","lon":"-73.97689","name":"Atlantic Av - Barclays Ctr"},{"arrival":"18:50:00","id":"F36S","lat":"40.596063","lon":"-73.973357","name":"Avenue U"},{"arrival":"18:50:30","id":"F36S","lat":"40.596063","lon":"-73.973357","name":"Avenue U"},{"arrival":"18:50:00","id":"F36S","lat":"40.596063","lon":"-73.973357","name":"Avenue U"},{"arrival":"18:50:30","id":"L06N","lat":"40.730953","lon":"-73.981628","name":"1 Av"},{"arrival":"18:50:00","id":"L06N","lat":"40.730953","lon":"-73.981628","name":"1 Av"},{"arrival":"18:50:00","id":"A27N","lat":"40.757308","lon":"-73.989735","name":"42 St - Port Authority Bus Terminal"},{"arrival":"18:50:00","id":"A27N","lat":"40.757308","lon":"-73.989735","name":"42 St - Port Authority Bus Terminal"},{"arrival":"18:50:30","id":"A27N","lat":"40.757308","lon":"-73.989735","name":"42 St - Port Authority Bus Terminal"},{"arrival":"18:50:00","id":"A27N","lat":"40.757308","lon":"-73.989735","name":"42 St - Port Authority Bus Terminal"},{"arrival":"18:50:00","id":"A54S","lat":"40.67413","lon":"-73.88075","name":"Shepherd Av"},{"arrival":"18:50:00","id":"J15S","lat":"40.693879","lon":"-73.851576","name":"Woodhaven Blvd"},{"arrival":"18:50:00","id":"A49S","lat":"40.678822","lon":"-73.920786","name":"Ralph Av"},{"arrival":"18:50:00","id":"R33S","lat":"40.670847","lon":"-73.988302","name":"9 St"},{"arrival":"18:50:00","id":"706N","lat":"40.749865","lon":"-73.8627","name":"103 St - Corona Plaza"},{"arrival":"18:50:00","id":"706N","lat":"40.749865","lon":"-73.8627","name":"103 St - Corona Plaza"},{"arrival":"18:50:30","id":"409S","lat":"40.853453","lon":"-73.907684","name":"Burnside Av"},{"arrival":"18:50:00","id":"F22S","lat":"40.67358","lon":"-73.995959","name":"Smith - 9 Sts"},{"arrival":"18:50:00","id":"F32S","lat":"40.620769","lon":"-73.975264","name":"Bay Pkwy"},{"arrival":"18:50:00","id":"222N","lat":"40.81841","lon":"-73.926718","name":"149 St - Grand Concourse"},{"arrival":"18:50:30","id":"633N","lat":"40.74307","lon":"-73.984264","name":"28 St"},{"arrival":"18:50:00","id":"706S","lat":"40.749865","lon":"-73.8627","name":"103 St - Corona Plaza"},{"arrival":"18:50:00","id":"B08S","lat":"40.764629","lon":"-73.966113","name":"Lexington Av\/63 St"},{"arrival":"18:50:00","id":"A34S","lat":"40.720824","lon":"-74.005229","name":"Canal St"},{"arrival":"18:50:00","id":"R11N","lat":"40.76266","lon":"-73.967258","name":"Lexington Av\/59 St"},{"arrival":"18:50:30","id":"R11N","lat":"40.76266","lon":"-73.967258","name":"Lexington Av\/59 St"},{"arrival":"18:50:30","id":"R11N","lat":"40.76266","lon":"-73.967258","name":"Lexington Av\/59 St"},{"arrival":"18:50:00","id":"G14N","lat":"40.746644","lon":"-73.891338","name":"Jackson Hts - Roosevelt Av"},{"arrival":"18:50:00","id":"G14N","lat":"40.746644","lon":"-73.891338","name":"Jackson Hts - Roosevelt Av"},{"arrival":"18:50:00","id":"G14N","lat":"40.746644","lon":"-73.891338","name":"Jackson Hts - Roosevelt Av"},{"arrival":"18:50:00","id":"A34N","lat":"40.720824","lon":"-74.005229","name":"Canal St"},{"arrival":"18:50:30","id":"B08N","lat":"40.764629","lon":"-73.966113","name":"Lexington Av\/63 St"},{"arrival":"18:50:00","id":"B10S","lat":"40.763972","lon":"-73.97745","name":"57 St"},{"arrival":"18:50:00","id":"638S","lat":"40.722301","lon":"-73.997141","name":"Spring St"},{"arrival":"18:50:00","id":"B10N","lat":"40.763972","lon":"-73.97745","name":"57 St"},{"arrival":"18:50:30","id":"123N","lat":"40.778453","lon":"-73.98197","name":"72 St"},{"arrival":"18:50:30","id":"L28N","lat":"40.650573","lon":"-73.899485","name":"E 105 St"},{"arrival":"18:50:00","id":"F09S","lat":"40.747846","lon":"-73.946","name":"Court Sq"}]}