{"result":[{"arrival":"18:33:00","id":"H07S","lat":"40.592374","lon":"-73.788522","name":"Beach 60 St"},{"arrival":"18:33:30","id":"F38N","lat":"40.58962","lon":"-73.97425","name":"Avenue X"},{"arrival":"18:33:30","id":"F38N","lat":"40.58962","lon":"-73.97425","name":"Avenue X"},{"arrival":"18:33:30","id":"N02S","lat":"40.635064","lon":"-74.011719","name":"8 Av"},{"arrival":"18:33:30","id":"F22N","lat":"40.67358","lon":"-73.995959","name":"Smith - 9 Sts"},{"arrival":"18:33:00","id":"416S","lat":"40.813224","lon":"-73.929849","name":"138 St - Grand Concourse"},{"arrival":"18:33:00","id":"F22S","lat":"40.67358","lon":"-73.995959","name":"Smith - 9 Sts"},{"arrival":"18:33:30","id":"104S","lat":"40.878856","lon":"-73.904834","name":"231 St"},{"arrival":"18:33:30","id":"A25S","lat":"40.762456","lon":"-73.985984","name":"50 St"},{"arrival":"18:33:30","id":"M21N","lat":"40.713243","lon":"-74.003401","name":"Chambers St"},{"arrival":"18:33:00","id":"233S","lat":"40.690545","lon":"-73.985065","name":"Hoyt St"},{"arrival":"18:33:30","id":"J14N","lat":"40.695178","lon":"-73.84433","name":"104 St"},{"arrival":"18:33:00","id":"L19N","lat":"40.695602","lon":"-73.904084","name":"Halsey St"},{"arrival":"18:33:00","id":"612N","lat":"40.826525","lon":"-73.886283","name":"Whitlock Av"},{"arrival":"18:33:30","id":"D12S","lat":"40.830135","lon":"-73.938209","name":"155 St"},{"arrival":"18:33:30","id":"604N","lat":"40.839892","lon":"-73.842952","name":"Westchester Sq - E Tremont Av"},{"arrival":"18:33:30","id":"715N","lat":"40.743781","lon":"-73.924016","name":"40 St"},{"arrival":"18:33:30","id":"D16S","lat":"40.754222","lon":"-73.984569","name":"42 St - Bryant Pk"},{"arrival":"18:33:30","id":"D28N","lat":"40.650527","lon":"-73.962982","name":"Church Av"},{"arrival":"18:33:30","id":"D16N","lat":"40.754222","lon":"-73.984569","name":"42 St - Bryant Pk"},{"arrival":"18:33:30","id":"D16N","lat":"40.754222","lon":"-73.984569","name":"42 St - Bryant Pk"},{"arrival":"18:33:00","id":"D16N","lat":"40.754222","lon":"-73.984569","name":"42 St - Bryant Pk"},{"arrival":"18:33:00","id":"D16N","lat":"40.754222","lon":"-73.984569","name":"42 St - Bryant Pk"},{"arrival":"18:33:00","id":"S18S","lat":"40.544601","lon":"-74.16457","name":"Eltingville"},{"arrival":"18:33:00","id":"S18S","lat":"40.544601","lon":"-74.16457","name":"Eltingville"},{"arrival":"18:33:00","id":"J20S","lat":"40.683194","lon":"-73.873785","name":"Crescent St"},{"arrival":"18:33:30","id":"J20S","lat":"40.683194","lon":"-73.873785","name":"Crescent St"},{"arrival":"18:33:30","id":"J14S","lat":"40.695178","lon":"-73.84433","name":"104 St"},{"arrival":"18:33:30","id":"R17S","lat":"40.749567","lon":"-73.98795","name":"34 St - Herald Sq"},{"arrival":"18:33:30","id":"B06N","lat":"40.759145","lon":"-73.95326","name":"Roosevelt Island"},{"arrival":"18:33:00","id":"130S","lat":"40.744081","lon":"-73.995657","name":"23 St"},{"arrival":"18:33:30","id":"R17N","lat":"40.749567","lon":"-73.98795","name":"34 St - Herald Sq"},{"arrival":"18:33:30","id":"R17N","lat":"40.749567","lon":"-73.98795","name":"34 St - Herald Sq"},{"arrival":"18:33:00","id":"L16S","lat":"40.703811","lon":"-73.918425","name":"DeKalb Av"},{"arrival":"18:33:00","id":"L16S","lat":"40.703811","lon":"-73.918425","name":"DeKalb Av"},{"arrival":"18:33:00","id":"S30N","lat":"40.636949","lon":"-74.074835","name":"Tompkinsville"},{"arrival":"18:33:00","id":"220N","lat":"40.81649","lon":"-73.907807","name":"Jackson Av"},{"arrival":"18:33:00","id":"220N","lat":"40.81649","lon":"-73.907807","name":"Jackson Av"},{"arrival":"18:33:00","id":"G10S","lat":"40.729846","lon":"-73.861604","name":"63 Dr - Rego Park"},{"arrival":"18:33:30","id":"F07S","lat":"40.718331","lon":"-73.837324","name":"75 Av"},{"arrival":"18:33:00","id":"F07S","lat":"40.718331","lon":"-73.837324","name":"75 Av"},{"arrival":"18:33:30","id":"A24S","lat":"40.768296","lon":"-73.981736","name":"59 St - Columbus Circle"},{"arrival":"18:33:00","id":"A24S","lat":"40.768296","lon":"-73.981736","name":"59 St - Columbus Circle"},{"arrival":"18:33:00","id":"A24S","lat":"40.768296","lon":"-73.981736","name":"59 St - Columbus Circle"},{"arrival":"18:33:30","id":"219S","lat":"40.819585","lon":"-73.90177","name":"Prospect Av"},{"arrival":"18:33:30","id":"219S","lat":"40.819585","lon":"-73.90177","name":"Prospect Av"},{"arrival":"18:33:00","id":"A16S","lat":"40.805085","lon":"-73.954882","name":"116 St"},{"arrival":"18:33:00","id":"723N","lat":"40.751431","lon":"-73.976041","name":"Grand Central - 42 St"},{"arrival":"18:33:00","id":"723N","lat":"40.751431","lon":"-73.976041","name":"Grand Central - 42 St"},{"arrival":"18:33:30","id":"A24N","lat":"40.768296","lon":"-73.981736","name":"59 St - Columbus Circle"},{"arrival":"18:33:00","id":"626N","lat":"40.779492","lon":"-73.955589","name":"86 St"},{"arrival":"18:33:00","id":"626N","lat":"40.779492","lon":"-73.955589","name":"86 St"},{"arrival":"18:33:30","id":"210N","lat":"40.865462","lon":"-73.867352","name":"Allerton Av"},{"arrival":"18:33:00","id":"423N","lat":"40.692404","lon":"-73.990151","name":"Borough Hall"},{"arrival":"18:33:30","id":"245S","lat":"40.645098","lon":"-73.948959","name":"Beverly Rd"},{"arrival":"18:33:30","id":"245S","lat":"40.645098","lon":"-73.948959","name":"Beverly Rd"},{"arrival":"18:33:30","id":"229N","lat":"40.709416","lon":"-74.006571","name":"Fulton St"},{"arrival":"18:33:30","id":"229N","lat":"40.709416","lon":"-74.006571","name":"Fulton St"},{"arrival":"18:33:00","id":"229N","lat":"40.709416","lon":"-74.006571","name":"Fulton St"},{"arrival":"18:33:30","id":"423S","lat":"40.692404","lon":"-73.990151","name":"Borough Hall"},{"arrival":"18:33:30","id":"A42S","lat":"40.688484","lon":"-73.985001","name":"Hoyt - Schermerhorn Sts"},{"arrival":"18:33:30","id":"D33S","lat":"40.625039","lon":"-73.960803","name":"Avenue J"},{"arrival":"18:33:00","id":"702N","lat":"40.754622","lon":"-73.845625","name":"Mets - Willets Point"},{"arrival":"18:33:00","id":"S31S","lat":"40.643748","lon":"-74.073643","name":"St George"},{"arrival":"18:33:30","id":"237N","lat":"40.675235","lon":"-73.971046","name":"Grand Army Plaza"},{"arrival":"18:33:30","id":"A34S","lat":"40.720824","lon":"-74.005229","name":"Canal St"},{"arrival":"18:33:30","id":"616N","lat":"40.808719","lon":"-73.907657","name":"E 143 St - St Mary's St"},{"arrival":"18:33:00","id":"217N","lat":"40.824073","lon":"-73.893064","name":"Simpson St"},{"arrival":"18:33:00","id":"237S","lat":"40.675235","lon":"-73.971046","name":"Grand Army Plaza"},{"arrival":"18:33:30","id":"415N","lat":"40.818375","lon":"-73.927351","name":"149 St - Grand Concourse"},{"arrival":"18:33:30","id":"117N","lat":"40.807722","lon":"-73.96411","name":"116 St - Columbia University"},{"arrival":"18:33:00","id":"127N","lat":"40.75529","lon":"-73.987495","name":"Times Sq - 42 St"},{"arrival":"18:33:00","id":"127N","lat":"40.75529","lon":"-73.987495","name":"Times Sq - 42 St"},{"arrival":"18:33:00","id":"127N","lat":"40.75529","lon":"-73.987495","name":"Times Sq - 42 St"},{"arrival":"18:33:30","id":"401N","lat":"40.886037","lon":"-73.878751","name":"Woodlawn"},{"arrival":"18:33:30","id":"401N","lat":"40.886037","lon":"-73.878751","name":"Woodlawn"},{"arrival":"18:33:30","id":"127S","lat":"40.75529","lon":"-73.987495","name":"Times Sq - 42 St"},{"arrival":"18:33:30","id":"L16N","lat":"40.703811","lon":"-73.918425","name":"DeKalb Av"},{"arrival":"18:33:00","id":"117S","lat":"40.807722","lon":"-73.96411","name":"116 St - Columbia University"},{"arrival":"18:33:00","id":"A36N","lat":"40.714111","lon":"-74.008585","name":"Chambers St"},{"arrival":"18:33:00","id":"716S","lat":"40.744587","lon":"-73.930997","name":"33 St"},{"arrival":"18:33:30","id":"R03N","lat":"40.770258","lon":"-73.917843","name":"Astoria Blvd"},{"arrival":"18:33:00","id":"R03N","lat":"40.770258","lon":"-73.917843","name":"Astoria Blvd"},{"arrival":"18:33:00","id":"R13S","lat":"40.764811","lon":"-73.973347","name":"5 Av\/59 St"},{"arrival":"18:33:30","id":"D15S","lat":"40.758663","lon":"-73.981329","name":"47-50 Sts - Rockefeller Ctr"},{"arrival":"18:33:00","id":"D15S","lat":"40.758663","lon":"-73.981329","name":"47-50 Sts - Rockefeller Ctr"},{"arrival":"18:33:00","id":"D15S","lat":"40.758663","lon":"-73.981329","name":"47-50 Sts - Rockefeller Ctr"},{"arrival":"18:33:00","id":"R42S","lat":"40.634967","lon":"-74.023377","name":"Bay Ridge Av"},{"arrival":"18:33:00","id":"R13N","lat":"40.764811","lon":"-73.973347","name":"5 Av\/59 St"},{"arrival":"18:33:00","id":"R13N","lat":"40.764811","lon":"-73.973347","name":"5 Av\/59 St"},{"arrival":"18:33:30","id":"R03S","lat":"40.770258","lon":"-73.917843","name":"Astoria Blvd"},{"arrival":"18:33:00","id":"129N","lat":"40.747215","lon":"-73.993365","name":"28 St"},{"arrival":"18:33:00","id":"129N","lat":"40.747215","lon":"-73.993365","name":"28 St"},{"arrival":"18:33:00","id":"135N","lat":"40.722854","lon":"-74.006277","name":"Canal St"},{"arrival":"18:33:30","id":"135N","lat":"40.722854","lon":"-74.006277","name":"Canal St"},{"arrival":"18:33:30","id":"R32S","lat":"40.677316","lon":"-73.98311","name":"Union St"},{"arrival":"18:33:00","id":"A12S","lat":"40.824783","lon":"-73.944216","name":"145 St"},{"arrival":"18:33:30","id":"A12S","lat":"40.824783","lon":"-73.944216","name":"145 St"},{"arrival":"18:33:00","id":"F04N","lat":"40.70546","lon":"-73.810708","name":"Sutphin Blvd"},{"arrival":"18:33:30","id":"G15S","lat":"40.749669","lon":"-73.898453","name":"65 St"},{"arrival":"18:33:30","id":"F04S","lat":"40.70546","lon":"-73.810708","name":"Sutphin Blvd"},{"arrival":"18:33:30","id":"A12N","lat":"40.824783","lon":"-73.944216","name":"145 St"},{"arrival":"18:33:00","id":"A12N","lat":"40.824783","lon":"-73.944216","name":"145 St"},{"arrival":"18:33:00","id":"G09S","lat":"40.726523","lon":"-73.852719","name":"67 Av"},{"arrival":"18:33:30","id":"R32N","lat":"40.677316","lon":"-73.98311","name":"Union St"},{"arrival":"18:33:30","id":"630N","lat":"40.757107","lon":"-73.97192","name":"51 St"},{"arrival":"18:33:30","id":"630S","lat":"40.757107","lon":"-73.97192","name":"51 St"},{"arrival":"18:33:30","id":"255S","lat":"40.664635","lon":"-73.894895","name":"Pennsylvania Av"},{"arrival":"18:33:30","id":"255S","lat":"40.664635","lon":"-73.894895","name":"Pennsylvania Av"},{"arrival":"18:33:30","id":"R44N","lat":"40.622687","lon":"-74.028398","name":"86 St"},{"arrival":"18:33:30","id":"R44N","lat":"40.622687","lon":"-74.028398","name":"86 St"},{"arrival":"18:33:30","id":"120S","lat":"40.793919","lon":"-73.972323","name":"96 St"},{"arrival":"18:33:30","id":"F01N","lat":"40.712646","lon":"-73.783817","name":"Jamaica - 179 St"},{"arrival":"18:33:30","id":"L29N","lat":"40.646654","lon":"-73.90185","name":"Canarsie - Rockaway Pkwy"},{"arrival":"18:33:30","id":"R44S","lat":"40.622687","lon":"-74.028398","name":"86 St"},{"arrival":"18:33:00","id":"R20N","lat":"40.735736","lon":"-73.990568","name":"14 St - Union Sq"},{"arrival":"18:33:00","id":"B12N","lat":"40.646292","lon":"-73.994324","name":"9 Av"},{"arrival":"18:33:30","id":"N06S","lat":"40.61741","lon":"-73.985026","name":"20 Av"},{"arrival":"18:33:00","id":"F24N","lat":"40.666271","lon":"-73.980305","name":"7 Av"},{"arrival":"18:33:00","id":"F24N","lat":"40.666271","lon":"-73.980305","name":"7 Av"},{"arrival":"18:33:00","id":"A31N","lat":"40.740893","lon":"-74.00169","name":"14 St"},{"arrival":"18:33:30","id":"S03S","lat":"40.674772","lon":"-73.957624","name":"Park Pl"},{"arrival":"18:33:00","id":"R06N","lat":"40.756804","lon":"-73.929575","name":"36 Av"},{"arrival":"18:33:00","id":"A48N","lat":"40.679364","lon":"-73.930729","name":"Utica Av"},{"arrival":"18:33:00","id":"632N","lat":"40.746081","lon":"-73.982076","name":"33 St"},{"arrival":"18:33:00","id":"632N","lat":"40.746081","lon":"-73.982076","name":"33 St"},{"arrival":"18:33:00","id":"F06S","lat":"40.714441","lon":"-73.831008","name":"Kew Gardens - Union Tpke"},{"arrival":"18:33:30","id":"F06N","lat":"40.714441","lon":"-73.831008","name":"Kew Gardens - Union Tpke"},{"arrival":"18:33:30","id":"F06N","lat":"40.714441","lon":"-73.831008","name":"Kew Gardens - Union Tpke"},{"arrival":"18:33:30","id":"632S","lat":"40.746081","lon":"-73.982076","name":"33 St"},{"arrival":"18:33:00","id":"A09S","lat":"40.840719","lon":"-73.939561","name":"168 St"},{"arrival":"18:33:30","id":"724S","lat":"40.753821","lon":"-73.981963","name":"5 Av"},{"arrival":"18:33:00","id":"M10S","lat":"40.697857","lon":"-73.927397","name":"Central Av"},{"arrival":"18:33:30","id":"211N","lat":"40.857192","lon":"-73.867615","name":"Pelham Pkwy"},{"arrival":"18:33:30","id":"211N","lat":"40.857192","lon":"-73.867615","name":"Pelham Pkwy"},{"arrival":"18:33:30","id":"244N","lat":"40.650843","lon":"-73.949575","name":"Church Av"},{"arrival":"18:33:00","id":"F32S","lat":"40.620769","lon":"-73.975264","name":"Bay Pkwy"},{"arrival":"18:33:30","id":"F32S","lat":"40.620769","lon":"-73.975264","name":"Bay Pkwy"},{"arrival":"18:33:00","id":"D35N","lat":"40.60867","lon":"-73.957734","name":"Kings Hwy"},{"arrival":"18:33:30","id":"621S","lat":"40.804138","lon":"-73.937594","name":"125 St"},{"arrival":"18:33:00","id":"621S","lat":"40.804138","lon":"-73.937594","name":"125 St"},{"arrival":"18:33:30","id":"635N","lat":"40.734673","lon":"-73.989951","name":"14 St - Union Sq"},{"arrival":"18:33:30","id":"635N","lat":"40.734673","lon":"-73.989951","name":"14 St - Union Sq"},{"arrival":"18:33:00","id":"244S","lat":"40.650843","lon":"-73.949575","name":"Church Av"},{"arrival":"18:33:30","id":"A45N","lat":"40.68138","lon":"-73.956848","name":"Franklin Av"},{"arrival":"18:33:30","id":"L20S","lat":"40.688764","lon":"-73.904046","name":"Wilson Av"},{"arrival":"18:33:00","id":"A55S","lat":"40.675377","lon":"-73.872106","name":"Euclid Av"},{"arrival":"18:33:30","id":"710N","lat":"40.746848","lon":"-73.891394","name":"74 St - Broadway"},{"arrival":"18:33:00","id":"710N","lat":"40.746848","lon":"-73.891394","name":"74 St - Broadway"},{"arrival":"18:33:30","id":"710N","lat":"40.746848","lon":"-73.891394","name":"74 St - Broadway"},{"arrival":"18:33:00","id":"F21S","lat":"40.680303","lon":"-73.995048","name":"Carroll St"},{"arrival":"18:33:00","id":"N09S","lat":"40.597473","lon":"-73.979137","name":"Avenue U"},{"arrival":"18:33:30","id":"F11N","lat":"40.757552","lon":"-73.969055","name":"Lexington Av\/53 St"},{"arrival":"18:33:30","id":"246N","lat":"40.639967","lon":"-73.948411","name":"Newkirk Av"},{"arrival":"18:33:30","id":"G21S","lat":"40.748973","lon":"-73.937243","name":"Queens Plaza"},{"arrival":"18:33:00","id":"F21N","lat":"40.680303","lon":"-73.995048","name":"Carroll St"},{"arrival":"18:33:30","id":"234S","lat":"40.688246","lon":"-73.980492","name":"Nevins St"},{"arrival":"18:33:00","id":"710S","lat":"40.746848","lon":"-73.891394","name":"74 St - Broadway"},{"arrival":"18:33:30","id":"710S","lat":"40.746848","lon":"-73.891394","name":"74 St - Broadway"},{"arrival":"18:33:00","id":"710S","lat":"40.746848","lon":"-73.891394","name":"74 St - Broadway"},{"arrival":"18:33:30","id":"L05N","lat":"40.732849","lon":"-73.986122","name":"3 Av"},{"arrival":"18:33:00","id":"L05N","lat":"40.732849","lon":"-73.986122","name":"3 Av"},{"arrival":"18:33:30","id":"124N","lat":"40.77344","lon":"-73.982209","name":"66 St - Lincoln Center"},{"arrival":"18:33:00","id":"124S","lat":"40.77344","lon":"-73.982209","name":"66 St - Lincoln Center"},{"arrival":"18:33:00","id":"108N","lat":"40.864621","lon":"-73.918822","name":"207 St"},{"arrival":"18:33:30","id":"116S","lat":"40.815581","lon":"-73.958372","name":"125 St"},{"arrival":"18:33:30","id":"R09S","lat":"40.750582","lon":"-73.940202","name":"Queensboro Plaza"},{"arrival":"18:33:30","id":"G36N","lat":"40.687119","lon":"-73.975375","name":"Fulton St"},{"arrival":"18:33:30","id":"G36N","lat":"40.687119","lon":"-73.975375","name":"Fulton St"},{"arrival":"18:33:30","id":"R14S","lat":"40.764664","lon":"-73.980658","name":"57 St - 7 Av"},{"arrival":"18:33:00","id":"H10N","lat":"40.600066","lon":"-73.761353","name":"Beach 25 St"},{"arrival":"18:33:30","id":"H10N","lat":"40.600066","lon":"-73.761353","name":"Beach 25 St"},{"arrival":"18:33:00","id":"134N","lat":"40.728251","lon":"-74.005367","name":"Houston St"},{"arrival":"18:33:30","id":"A44S","lat":"40.683263","lon":"-73.965838","name":"Clinton - Washington Avs"},{"arrival":"18:33:30","id":"F14N","lat":"40.723402","lon":"-73.989938","name":"2 Av"},{"arrival":"18:33:00","id":"D21S","lat":"40.725297","lon":"-73.996204","name":"Broadway-Lafayette St"},{"arrival":"18:33:00","id":"D21S","lat":"40.725297","lon":"-73.996204","name":"Broadway-Lafayette St"},{"arrival":"18:33:30","id":"720S","lat":"40.742216","lon":"-73.948916","name":"Hunters Point Av"},{"arrival":"18:33:00","id":"M14S","lat":"40.70687","lon":"-73.953431","name":"Hewes St"},{"arrival":"18:33:00","id":"A05S","lat":"40.859022","lon":"-73.93418","name":"190 St"},{"arrival":"18:33:00","id":"G14N","lat":"40.746644","lon":"-73.891338","name":"Jackson Hts - Roosevelt Av"},{"arrival":"18:33:00","id":"F27N","lat":"40.644041","lon":"-73.979678","name":"Church Av"},{"arrival":"18:33:00","id":"F03S","lat":"40.707564","lon":"-73.803326","name":"Parsons Blvd"},{"arrival":"18:33:30","id":"720N","lat":"40.742216","lon":"-73.948916","name":"Hunters Point Av"},{"arrival":"18:33:00","id":"631N","lat":"40.751776","lon":"-73.976848","name":"Grand Central - 42 St"},{"arrival":"18:33:30","id":"D41S","lat":"40.576312","lon":"-73.968501","name":"Ocean Pkwy"},{"arrival":"18:33:00","id":"G16S","lat":"40.752885","lon":"-73.906006","name":"Northern Blvd"},{"arrival":"18:33:30","id":"A20N","lat":"40.785868","lon":"-73.968916","name":"86 St"},{"arrival":"18:33:00","id":"A20N","lat":"40.785868","lon":"-73.968916","name":"86 St"},{"arrival":"18:33:00","id":"625N","lat":"40.785672","lon":"-73.95107","name":"96 St"},{"arrival":"18:33:00","id":"625S","lat":"40.785672","lon":"-73.95107","name":"96 St"},{"arrival":"18:33:00","id":"625S","lat":"40.785672","lon":"-73.95107","name":"96 St"},{"arrival":"18:33:00","id":"625S","lat":"40.785672","lon":"-73.95107","name":"96 St"},{"arrival":"18:33:30","id":"224S","lat":"40.814229","lon":"-73.94077","name":"135 St"},{"arrival":"18:33:30","id":"631S","lat":"40.751776","lon":"-73.976848","name":"Grand Central - 42 St"},{"arrival":"18:33:30","id":"A40S","lat":"40.699337","lon":"-73.990531","name":"High St"},{"arrival":"18:33:00","id":"A40S","lat":"40.699337","lon":"-73.990531","name":"High St"},{"arrival":"18:33:00","id":"N04N","lat":"40.624842","lon":"-73.996353","name":"New Utrecht Av"},{"arrival":"18:33:30","id":"N04N","lat":"40.624842","lon":"-73.996353","name":"New Utrecht Av"},{"arrival":"18:33:30","id":"N04N","lat":"40.624842","lon":"-73.996353","name":"New Utrecht Av"},{"arrival":"18:33:00","id":"214S","lat":"40.840295","lon":"-73.880049","name":"West Farms Sq - E Tremont Av"},{"arrival":"18:33:30","id":"622S","lat":"40.798629","lon":"-73.941617","name":"116 St"},{"arrival":"18:33:30","id":"502S","lat":"40.878663","lon":"-73.838591","name":"Baychester Av"},{"arrival":"18:33:00","id":"F25S","lat":"40.660365","lon":"-73.979493","name":"15 St - Prospect Park"},{"arrival":"18:33:30","id":"F25S","lat":"40.660365","lon":"-73.979493","name":"15 St - Prospect Park"},{"arrival":"18:33:00","id":"F31S","lat":"40.625322","lon":"-73.976127","name":"Avenue I"},{"arrival":"18:33:30","id":"F31N","lat":"40.625322","lon":"-73.976127","name":"Avenue I"},{"arrival":"18:33:00","id":"638N","lat":"40.722301","lon":"-73.997141","name":"Spring St"},{"arrival":"18:33:00","id":"D26N","lat":"40.661614","lon":"-73.962246","name":"Prospect Park"},{"arrival":"18:33:00","id":"622N","lat":"40.798629","lon":"-73.941617","name":"116 St"},{"arrival":"18:33:30","id":"622N","lat":"40.798629","lon":"-73.941617","name":"116 St"},{"arrival":"18:33:00","id":"M16N","lat":"40.708359","lon":"-73.957757","name":"Marcy Av"},{"arrival":"18:33:00","id":"247S","lat":"40.632836","lon":"-73.947642","name":"Flatbush Av - Brooklyn College"},{"arrival":"18:33:30","id":"247S","lat":"40.632836","lon":"-73.947642","name":"Flatbush Av - Brooklyn College"},{"arrival":"18:33:00","id":"G12N","lat":"40.737015","lon":"-73.877223","name":"Grand Av - Newtown"},{"arrival":"18:33:00","id":"G12N","lat":"40.737015","lon":"-73.877223","name":"Grand Av - Newtown"},{"arrival":"18:33:30","id":"A03S","lat":"40.865491","lon":"-73.927271","name":"Dyckman St"},{"arrival":"18:33:30","id":"J22N","lat":"40.679947","lon":"-73.884639","name":"Cleveland St"},{"arrival":"18:33:30","id":"J23N","lat":"40.678024","lon":"-73.891688","name":"Van Siclen Av"},{"arrival":"18:33:00","id":"222N","lat":"40.81841","lon":"-73.926718","name":"149 St - Grand Concourse"},{"arrival":"18:33:00","id":"254N","lat":"40.663515","lon":"-73.902447","name":"Junius St"},{"arrival":"18:33:30","id":"L26S","lat":"40.664038","lon":"-73.900571","name":"Livonia Av"},{"arrival":"18:33:30","id":"222S","lat":"40.81841","lon":"-73.926718","name":"149 St - Grand Concourse"},{"arrival":"18:33:00","id":"A38S","lat":"40.710197","lon":"-74.007691","name":"Fulton St"},{"arrival":"18:33:00","id":"S27N","lat":"40.603117","lon":"-74.084087","name":"Grasmere"},{"arrival":"18:33:00","id":"S27N","lat":"40.603117","lon":"-74.084087","name":"Grasmere"},{"arrival":"18:33:30","id":"L05S","lat":"40.732849","lon":"-73.986122","name":"3 Av"},{"arrival":"18:33:00","id":"725N","lat":"40.755477","lon":"-73.987691","name":"Times Sq - 42 St"},{"arrival":"18:33:30","id":"A38N","lat":"40.710197","lon":"-74.007691","name":"Fulton St"},{"arrival":"18:33:30","id":"253S","lat":"40.662549","lon":"-73.908946","name":"Rockaway Av"},{"arrival":"18:33:00","id":"212N","lat":"40.848828","lon":"-73.868457","name":"Bronx Park East"},{"arrival":"18:33:30","id":"A31S","lat":"40.740893","lon":"-74.00169","name":"14 St"},{"arrival":"18:33:30","id":"A31S","lat":"40.740893","lon":"-74.00169","name":"14 St"},{"arrival":"18:33:30","id":"419S","lat":"40.707557","lon":"-74.011862","name":"Wall St"},{"arrival":"18:33:00","id":"619S","lat":"40.810476","lon":"-73.926138","name":"3 Av - 138 St"},{"arrival":"18:33:00","id":"L10N","lat":"40.714063","lon":"-73.950275","name":"Lorimer St"},{"arrival":"18:33:30","id":"629N","lat":"40.762526","lon":"-73.967967","name":"59 St"},{"arrival":"18:33:30","id":"629N","lat":"40.762526","lon":"-73.967967","name":"59 St"},{"arrival":"18:33:30","id":"629S","lat":"40.762526","lon":"-73.967967","name":"59 St"},{"arrival":"18:33:30","id":"606N","lat":"40.836488","lon":"-73.847036","name":"Zerega Av"},{"arrival":"18:33:00","id":"A57S","lat":"40.677044","lon":"-73.86505","name":"Grant Av"},{"arrival":"18:33:00","id":"610S","lat":"40.829521","lon":"-73.874516","name":"Morrison Av- Sound View"},{"arrival":"18:33:30","id":"713N","lat":"40.744149","lon":"-73.912549","name":"52 St"},{"arrival":"18:33:00","id":"410S","lat":"40.84848","lon":"-73.911794","name":"176 St"},{"arrival":"18:33:00","id":"B18N","lat":"40.613501","lon":"-74.00061","name":"79 St"},{"arrival":"18:33:00","id":"B18N","lat":"40.613501","lon":"-74.00061","name":"79 St"},{"arrival":"18:33:00","id":"G22N","lat":"40.746554","lon":"-73.943832","name":"Court Sq"},{"arrival":"18:33:30","id":"D19S","lat":"40.738228","lon":"-73.996209","name":"14 St"},{"arrival":"18:33:30","id":"B18S","lat":"40.613501","lon":"-74.00061","name":"79 St"},{"arrival":"18:33:30","id":"B18S","lat":"40.613501","lon":"-74.00061","name":"79 St"},{"arrival":"18:33:00","id":"235N","lat":"40.684359","lon":"-73.977666","name":"Atlantic Av - Barclays Ctr"},{"arrival":"18:33:30","id":"109N","lat":"40.860531","lon":"-73.925536","name":"Dyckman St"},{"arrival":"18:33:30","id":"A60N","lat":"40.679843","lon":"-73.85147","name":"88 St"},{"arrival":"18:33:30","id":"125S","lat":"40.768247","lon":"-73.981929","name":"59 St - Columbus Circle"},{"arrival":"18:33:00","id":"G35S","lat":"40.688089","lon":"-73.966839","name":"Clinton - Washington Avs"},{"arrival":"18:33:00","id":"G19N","lat":"40.756879","lon":"-73.92074","name":"Steinway St"},{"arrival":"18:33:30","id":"L08S","lat":"40.717304","lon":"-73.956872","name":"Bedford Av"},{"arrival":"18:33:30","id":"G35N","lat":"40.688089","lon":"-73.966839","name":"Clinton - Washington Avs"},{"arrival":"18:33:30","id":"G05S","lat":"40.702147","lon":"-73.801109","name":"Jamaica Center - Parsons\/Archer"},{"arrival":"18:33:30","id":"R15S","lat":"40.759901","lon":"-73.984139","name":"49 St"},{"arrival":"18:33:30","id":"R15S","lat":"40.759901","lon":"-73.984139","name":"49 St"},{"arrival":"18:33:30","id":"D39S","lat":"40.586896","lon":"-73.954155","name":"Sheepshead Bay"},{"arrival":"18:33:30","id":"J17S","lat":"40.691324","lon":"-73.867139","name":"75 St"},{"arrival":"18:33:00","id":"A51S","lat":"40.678334","lon":"-73.905316","name":"Broadway Jct"},{"arrival":"18:33:30","id":"R39S","lat":"40.648939","lon":"-74.010006","name":"45 St"},{"arrival":"18:33:30","id":"R39S","lat":"40.648939","lon":"-74.010006","name":"45 St"},{"arrival":"18:33:00","id":"R01S","lat":"40.775036","lon":"-73.912034","name":"Astoria - Ditmars Blvd"},{"arrival":"18:33:30","id":"L14S","lat":"40.706152","lon":"-73.933147","name":"Morgan Av"},{"arrival":"18:33:30","id":"L14S","lat":"40.706152","lon":"-73.933147","name":"Morgan Av"},{"arrival":"18:33:30","id":"J13S","lat":"40.697418","lon":"-73.836345","name":"111 St"},{"arrival":"18:33:00","id":"R15N","lat":"40.759901","lon":"-73.984139","name":"49 St"},{"arrival":"18:33:30","id":"137N","lat":"40.715478","lon":"-74.009266","name":"Chambers St"},{"arrival":"18:33:30","id":"137N","lat":"40.715478","lon":"-74.009266","name":"Chambers St"},{"arrival":"18:33:00","id":"A06N","lat":"40.851695","lon":"-73.937969","name":"181 St"},{"arrival":"18:33:00","id":"A06N","lat":"40.851695","lon":"-73.937969","name":"181 St"},{"arrival":"18:33:00","id":"A06S","lat":"40.851695","lon":"-73.937969","name":"181 St"},{"arrival":"18:33:30","id":"A60S","lat":"40.679843","lon":"-73.85147","name":"88 St"},{"arrival":"18:33:00","id":"A60S","lat":"40.679843","lon":"-73.85147","name":"88 St"},{"arrival":"18:33:00","id":"721S","lat":"40.742626","lon":"-73.953581","name":"Vernon Blvd - Jackson Av"},{"arrival":"18:33:30","id":"302S","lat":"40.820421","lon":"-73.936245","name":"145 St"},{"arrival":"18:33:30","id":"A19N","lat":"40.791642","lon":"-73.964696","name":"96 St"},{"arrival":"18:33:30","id":"640S","lat":"40.713065","lon":"-74.004131","name":"Brooklyn Bridge - City Hall"},{"arrival":"18:33:30","id":"640S","lat":"40.713065","lon":"-74.004131","name":"Brooklyn Bridge - City Hall"},{"arrival":"18:33:30","id":"640S","lat":"40.713065","lon":"-74.004131","name":"Brooklyn Bridge - City Hall"},{"arrival":"18:33:00","id":"640N","lat":"40.713065","lon":"-74.004131","name":"Brooklyn Bridge - City Hall"},{"arrival":"18:33:00","id":"640N","lat":"40.713065","lon":"-74.004131","name":"Brooklyn Bridge - City Hall"},{"arrival":"18:33:30","id":"721N","lat":"40.742626","lon":"-73.953581","name":"Vernon Blvd - Jackson Av"},{"arrival":"18:33:30","id":"302N","lat":"40.820421","lon":"-73.936245","name":"145 St"},{"arrival":"18:33:30","id":"228S","lat":"40.713051","lon":"-74.008811","name":"Park Pl"},{"arrival":"18:33:00","id":"227N","lat":"40.799075","lon":"-73.951822","name":"Central Park North (110 St)"},{"arrival":"18:33:30","id":"L22S","lat":"40.678856","lon":"-73.90324","name":"Broadway Jct"},{"arrival":"18:33:30","id":"639N","lat":"40.718803","lon":"-74.000193","name":"Canal St"},{"arrival":"18:33:30","id":"H01N","lat":"40.668234","lon":"-73.834058","name":"Aqueduct Racetrack"},{"arrival":"18:33:30","id":"L11N","lat":"40.714565","lon":"-73.944053","name":"Graham Av"},{"arrival":"18:33:30","id":"L11N","lat":"40.714565","lon":"-73.944053","name":"Graham Av"},{"arrival":"18:33:30","id":"208N","lat":"40.87785","lon":"-73.866256","name":"Gun Hill Rd"},{"arrival":"18:33:30","id":"J21N","lat":"40.68141","lon":"-73.880039","name":"Norwood Av"},{"arrival":"18:33:00","id":"R08S","lat":"40.752882","lon":"-73.932755","name":"39 Av"},{"arrival":"18:33:30","id":"R08S","lat":"40.752882","lon":"-73.932755","name":"39 Av"},{"arrival":"18:33:00","id":"215S","lat":"40.837288","lon":"-73.887734","name":"174 St"},{"arrival":"18:33:00","id":"215S","lat":"40.837288","lon":"-73.887734","name":"174 St"},{"arrival":"18:33:30","id":"201N","lat":"40.903125","lon":"-73.85062","name":"Wakefield - 241 St"},{"arrival":"18:33:30","id":"201N","lat":"40.903125","lon":"-73.85062","name":"Wakefield - 241 St"},{"arrival":"18:33:00","id":"A32S","lat":"40.732338","lon":"-74.000495","name":"W 4 St"},{"arrival":"18:33:30","id":"A32S","lat":"40.732338","lon":"-74.000495","name":"W 4 St"},{"arrival":"18:33:00","id":"A28S","lat":"40.752287","lon":"-73.993391","name":"34 St - Penn Station"},{"arrival":"18:33:00","id":"239N","lat":"40.670682","lon":"-73.958131","name":"Franklin Av"},{"arrival":"18:33:00","id":"239N","lat":"40.670682","lon":"-73.958131","name":"Franklin Av"},{"arrival":"18:33:00","id":"F23N","lat":"40.670272","lon":"-73.989779","name":"4 Av"},{"arrival":"18:33:00","id":"201S","lat":"40.903125","lon":"-73.85062","name":"Wakefield - 241 St"},{"arrival":"18:33:00","id":"201S","lat":"40.903125","lon":"-73.85062","name":"Wakefield - 241 St"},{"arrival":"18:33:30","id":"A32N","lat":"40.732338","lon":"-74.000495","name":"W 4 St"},{"arrival":"18:33:30","id":"A32N","lat":"40.732338","lon":"-74.000495","name":"W 4 St"},{"arrival":"18:33:00","id":"R22S","lat":"40.724329","lon":"-73.997702","name":"Prince St"},{"arrival":"18:33:00","id":"R22S","lat":"40.724329","lon":"-73.997702","name":"Prince St"},{"arrival":"18:33:00","id":"R22S","lat":"40.724329","lon":"-73.997702","name":"Prince St"},{"arrival":"18:33:00","id":"614S","lat":"40.816104","lon":"-73.896435","name":"Longwood Av"},{"arrival":"18:33:00","id":"614S","lat":"40.816104","lon":"-73.896435","name":"Longwood Av"},{"arrival":"18:33:00","id":"J30N","lat":"40.68963","lon":"-73.92227","name":"Gates Av"},{"arrival":"18:33:00","id":"111S","lat":"40.849505","lon":"-73.933596","name":"181 St"},{"arrival":"18:33:30","id":"D05N","lat":"40.861296","lon":"-73.897749","name":"Fordham Rd"},{"arrival":"18:33:30","id":"L14N","lat":"40.706152","lon":"-73.933147","name":"Morgan Av"},{"arrival":"18:33:00","id":"L14N","lat":"40.706152","lon":"-73.933147","name":"Morgan Av"},{"arrival":"18:33:00","id":"L11S","lat":"40.714565","lon":"-73.944053","name":"Graham Av"},{"arrival":"18:33:00","id":"249S","lat":"40.669399","lon":"-73.942161","name":"Kingston Av"},{"arrival":"18:33:00","id":"249S","lat":"40.669399","lon":"-73.942161","name":"Kingston Av"},{"arrival":"18:33:00","id":"H06N","lat":"40.590927","lon":"-73.796924","name":"Beach 67 St"},{"arrival":"18:33:30","id":"714S","lat":"40.743132","lon":"-73.918435","name":"46 St"},{"arrival":"18:33:30","id":"714S","lat":"40.743132","lon":"-73.918435","name":"46 St"},{"arrival":"18:33:00","id":"613S","lat":"40.820948","lon":"-73.890549","name":"Hunts Point Av"},{"arrival":"18:33:00","id":"230S","lat":"40.706821","lon":"-74.0091","name":"Wall St"},{"arrival":"18:33:00","id":"901S","lat":"40.752769","lon":"-73.979189","name":"Grand Central - 42 St"},{"arrival":"18:33:00","id":"901N","lat":"40.752769","lon":"-73.979189","name":"Grand Central - 42 St"},{"arrival":"18:33:00","id":"407N","lat":"40.862803","lon":"-73.901034","name":"Fordham Rd"},{"arrival":"18:33:00","id":"714N","lat":"40.743132","lon":"-73.918435","name":"46 St"},{"arrival":"18:33:00","id":"N05S","lat":"40.620671","lon":"-73.990414","name":"18 Av"},{"arrival":"18:33:00","id":"N05S","lat":"40.620671","lon":"-73.990414","name":"18 Av"},{"arrival":"18:33:30","id":"G06N","lat":"40.700486","lon":"-73.807969","name":"Sutphin Blvd - Archer Av - JFK Airport"},{"arrival":"18:33:30","id":"G06N","lat":"40.700486","lon":"-73.807969","name":"Sutphin Blvd - Archer Av - JFK Airport"},{"arrival":"18:33:30","id":"D39N","lat":"40.586896","lon":"-73.954155","name":"Sheepshead Bay"},{"arrival":"18:33:30","id":"D39N","lat":"40.586896","lon":"-73.954155","name":"Sheepshead Bay"},{"arrival":"18:33:00","id":"A55N","lat":"40.675377","lon":"-73.872106","name":"Euclid Av"},{"arrival":"18:33:00","id":"M04N","lat":"40.706186","lon":"-73.895877","name":"Fresh Pond Rd"},{"arrival":"18:33:30","id":"706N","lat":"40.749865","lon":"-73.8627","name":"103 St - Corona Plaza"},{"arrival":"18:33:00","id":"213S","lat":"40.841894","lon":"-73.873488","name":"E 180 St"},{"arrival":"18:33:00","id":"L22N","lat":"40.678856","lon":"-73.90324","name":"Broadway Jct"},{"arrival":"18:33:00","id":"701N","lat":"40.7596","lon":"-73.83003","name":"Flushing - Main St"},{"arrival":"18:33:00","id":"D37S","lat":"40.5993","lon":"-73.955929","name":"Avenue U"},{"arrival":"18:33:30","id":"F34N","lat":"40.608944","lon":"-73.973022","name":"Avenue P"},{"arrival":"18:33:30","id":"A19S","lat":"40.791642","lon":"-73.964696","name":"96 St"},{"arrival":"18:33:00","id":"A19S","lat":"40.791642","lon":"-73.964696","name":"96 St"},{"arrival":"18:33:30","id":"213N","lat":"40.841894","lon":"-73.873488","name":"E 180 St"},{"arrival":"18:33:30","id":"213N","lat":"40.841894","lon":"-73.873488","name":"E 180 St"},{"arrival":"18:33:00","id":"103N","lat":"40.884667","lon":"-73.90087","name":"238 St"},{"arrival":"18:33:00","id":"411N","lat":"40.844434","lon":"-73.914685","name":"Mt Eden Av"},{"arrival":"18:33:30","id":"113N","lat":"40.834041","lon":"-73.94489","name":"157 St"},{"arrival":"18:33:30","id":"628N","lat":"40.768141","lon":"-73.96387","name":"68 St - Hunter College"},{"arrival":"18:33:00","id":"D20N","lat":"40.732338","lon":"-74.000495","name":"W 4 St"},{"arrival":"18:33:00","id":"F18N","lat":"40.701397","lon":"-73.986751","name":"York St"},{"arrival":"18:33:00","id":"411S","lat":"40.844434","lon":"-73.914685","name":"Mt Eden Av"},{"arrival":"18:33:30","id":"L06S","lat":"40.730953","lon":"-73.981628","name":"1 Av"},{"arrival":"18:33:00","id":"L06S","lat":"40.730953","lon":"-73.981628","name":"1 Av"},{"arrival":"18:33:00","id":"103S","lat":"40.884667","lon":"-73.90087","name":"238 St"},{"arrival":"18:33:30","id":"R18S","lat":"40.745494","lon":"-73.988691","name":"28 St"},{"arrival":"18:33:30","id":"R18S","lat":"40.745494","lon":"-73.988691","name":"28 St"},{"arrival":"18:33:30","id":"712S","lat":"40.74563","lon":"-73.902984","name":"Woodside - 61 St"},{"arrival":"18:33:00","id":"A52N","lat":"40.674542","lon":"-73.896548","name":"Liberty Av"},{"arrival":"18:33:00","id":"405N","lat":"40.873412","lon":"-73.890064","name":"Bedford Park Blvd - Lehman College"},{"arrival":"18:33:30","id":"712N","lat":"40.74563","lon":"-73.902984","name":"Woodside - 61 St"},{"arrival":"18:33:30","id":"611N","lat":"40.828584","lon":"-73.879159","name":"Elder Av"},{"arrival":"18:33:30","id":"611N","lat":"40.828584","lon":"-73.879159","name":"Elder Av"},{"arrival":"18:33:00","id":"A49N","lat":"40.678822","lon":"-73.920786","name":"Ralph Av"},{"arrival":"18:33:00","id":"122N","lat":"40.783934","lon":"-73.979917","name":"79 St"},{"arrival":"18:33:30","id":"114N","lat":"40.826551","lon":"-73.95036","name":"145 St"},{"arrival":"18:33:00","id":"G34S","lat":"40.688873","lon":"-73.96007","name":"Classon Av"},{"arrival":"18:33:30","id":"B10S","lat":"40.763972","lon":"-73.97745","name":"57 St"},{"arrival":"18:33:00","id":"S10N","lat":"40.515401","lon":"-74.245689","name":"Atlantic"},{"arrival":"18:33:00","id":"S10N","lat":"40.515401","lon":"-74.245689","name":"Atlantic"},{"arrival":"18:33:30","id":"G18S","lat":"40.756312","lon":"-73.913333","name":"46 St"},{"arrival":"18:33:30","id":"M05N","lat":"40.704423","lon":"-73.903077","name":"Forest Av"},{"arrival":"18:33:00","id":"H13S","lat":"40.585307","lon":"-73.820558","name":"Beach 98 St"},{"arrival":"18:33:30","id":"B17N","lat":"40.619589","lon":"-73.998864","name":"71 St"},{"arrival":"18:33:30","id":"L24S","lat":"40.675345","lon":"-73.903097","name":"Atlantic Av"},{"arrival":"18:33:00","id":"L24S","lat":"40.675345","lon":"-73.903097","name":"Atlantic Av"},{"arrival":"18:33:30","id":"131S","lat":"40.74104","lon":"-73.997871","name":"18 St"},{"arrival":"18:33:30","id":"R16N","lat":"40.754672","lon":"-73.986754","name":"Times Sq - 42 St"},{"arrival":"18:33:00","id":"M19S","lat":"40.72028","lon":"-73.993915","name":"Bowery"},{"arrival":"18:33:00","id":"L24N","lat":"40.675345","lon":"-73.903097","name":"Atlantic Av"},{"arrival":"18:33:00","id":"L24N","lat":"40.675345","lon":"-73.903097","name":"Atlantic Av"},{"arrival":"18:33:00","id":"L01S","lat":"40.739777","lon":"-74.002578","name":"8 Av"},{"arrival":"18:33:00","id":"M05S","lat":"40.704423","lon":"-73.903077","name":"Forest Av"},{"arrival":"18:33:00","id":"A46N","lat":"40.680438","lon":"-73.950426","name":"Nostrand Av"},{"arrival":"18:33:30","id":"A46N","lat":"40.680438","lon":"-73.950426","name":"Nostrand Av"},{"arrival":"18:33:00","id":"F11S","lat":"40.757552","lon":"-73.969055","name":"Lexington Av\/53 St"},{"arrival":"18:33:00","id":"221N","lat":"40.816109","lon":"-73.917757","name":"3 Av - 149 St"},{"arrival":"18:33:00","id":"G11S","lat":"40.733106","lon":"-73.869229","name":"Woodhaven Blvd"},{"arrival":"18:33:30","id":"140N","lat":"40.701411","lon":"-74.013205","name":"South Ferry Loop"},{"arrival":"18:33:30","id":"G11N","lat":"40.733106","lon":"-73.869229","name":"Woodhaven Blvd"},{"arrival":"18:33:30","id":"M12S","lat":"40.70026","lon":"-73.941126","name":"Flushing Av"},{"arrival":"18:33:00","id":"M12S","lat":"40.70026","lon":"-73.941126","name":"Flushing Av"},{"arrival":"18:33:00","id":"G20N","lat":"40.752039","lon":"-73.928781","name":"36 St"},{"arrival":"18:33:30","id":"R31S","lat":"40.683666","lon":"-73.97881","name":"Atlantic Av - Barclays Ctr"},{"arrival":"18:33:00","id":"R31S","lat":"40.683666","lon":"-73.97881","name":"Atlantic Av - Barclays Ctr"},{"arrival":"18:33:00","id":"R31S","lat":"40.683666","lon":"-73.97881","name":"Atlantic Av - Barclays Ctr"},{"arrival":"18:33:30","id":"412S","lat":"40.840075","lon":"-73.917791","name":"170 St"},{"arrival":"18:33:00","id":"R31N","lat":"40.683666","lon":"-73.97881","name":"Atlantic Av - Barclays Ctr"},{"arrival":"18:33:00","id":"R31N","lat":"40.683666","lon":"-73.97881","name":"Atlantic Av - Barclays Ctr"},{"arrival":"18:33:30","id":"R31N","lat":"40.683666","lon":"-73.97881","name":"Atlantic Av - Barclays Ctr"},{"arrival":"18:33:00","id":"R31N","lat":"40.683666","lon":"-73.97881","name":"Atlantic Av - Barclays Ctr"},{"arrival":"18:33:00","id":"R31N","lat":"40.683666","lon":"-73.97881","name":"Atlantic Av - Barclays Ctr"},{"arrival":"18:33:00","id":"A27N","lat":"40.757308","lon":"-73.989735","name":"42 St - Port Authority Bus Terminal"},{"arrival":"18:33:30","id":"A27N","lat":"40.757308","lon":"-73.989735","name":"42 St - Port Authority Bus Terminal"},{"arrival":"18:33:30","id":"218N","lat":"40.822181","lon":"-73.896736","name":"Intervale Av"},{"arrival":"18:33:30","id":"218N","lat":"40.822181","lon":"-73.896736","name":"Intervale Av"},{"arrival":"18:33:00","id":"226S","lat":"40.802098","lon":"-73.949625","name":"116 St"},{"arrival":"18:33:00","id":"226S","lat":"40.802098","lon":"-73.949625","name":"116 St"},{"arrival":"18:33:00","id":"637N","lat":"40.725915","lon":"-73.994659","name":"Bleecker St"},{"arrival":"18:33:00","id":"250N","lat":"40.668897","lon":"-73.932942","name":"Crown Hts - Utica Av"},{"arrival":"18:33:00","id":"250N","lat":"40.668897","lon":"-73.932942","name":"Crown Hts - Utica Av"},{"arrival":"18:33:00","id":"505N","lat":"40.854364","lon":"-73.860495","name":"Morris Park"},{"arrival":"18:33:00","id":"D11S","lat":"40.827905","lon":"-73.925651","name":"161 St - Yankee Stadium"},{"arrival":"18:33:00","id":"627N","lat":"40.77362","lon":"-73.959874","name":"77 St"},{"arrival":"18:33:00","id":"627S","lat":"40.77362","lon":"-73.959874","name":"77 St"},{"arrival":"18:33:00","id":"A64S","lat":"40.684331","lon":"-73.832163","name":"111 St"},{"arrival":"18:33:00","id":"637S","lat":"40.725915","lon":"-73.994659","name":"Bleecker St"},{"arrival":"18:33:00","id":"226N","lat":"40.802098","lon":"-73.949625","name":"116 St"},{"arrival":"18:33:00","id":"226N","lat":"40.802098","lon":"-73.949625","name":"116 St"},{"arrival":"18:33:00","id":"G20S","lat":"40.752039","lon":"-73.928781","name":"36 St"},{"arrival":"18:33:00","id":"G20S","lat":"40.752039","lon":"-73.928781","name":"36 St"},{"arrival":"18:33:30","id":"D32N","lat":"40.62927","lon":"-73.961639","name":"Avenue H"},{"arrival":"18:33:30","id":"D32N","lat":"40.62927","lon":"-73.961639","name":"Avenue H"},{"arrival":"18:33:30","id":"705S","lat":"40.75173","lon":"-73.855334","name":"111 St"},{"arrival":"18:33:00","id":"705S","lat":"40.75173","lon":"-73.855334","name":"111 St"},{"arrival":"18:33:30","id":"705S","lat":"40.75173","lon":"-73.855334","name":"111 St"},{"arrival":"18:33:30","id":"705N","lat":"40.75173","lon":"-73.855334","name":"111 St"},{"arrival":"18:33:00","id":"705N","lat":"40.75173","lon":"-73.855334","name":"111 St"},{"arrival":"18:33:30","id":"D32S","lat":"40.62927","lon":"-73.961639","name":"Avenue H"},{"arrival":"18:33:30","id":"D32S","lat":"40.62927","lon":"-73.961639","name":"Avenue H"},{"arrival":"18:33:00","id":"719N","lat":"40.747023","lon":"-73.945264","name":"Court Sq"},{"arrival":"18:33:00","id":"A33N","lat":"40.726227","lon":"-74.003739","name":"Spring St"},{"arrival":"18:33:30","id":"609S","lat":"40.831509","lon":"-73.867618","name":"St Lawrence Av"},{"arrival":"18:33:30","id":"609S","lat":"40.831509","lon":"-73.867618","name":"St Lawrence Av"},{"arrival":"18:33:30","id":"110N","lat":"40.855225","lon":"-73.929412","name":"191 St"},{"arrival":"18:33:30","id":"248N","lat":"40.669847","lon":"-73.950466","name":"Nostrand Av"},{"arrival":"18:33:30","id":"248N","lat":"40.669847","lon":"-73.950466","name":"Nostrand Av"},{"arrival":"18:33:30","id":"126S","lat":"40.761728","lon":"-73.983849","name":"50 St"},{"arrival":"18:33:00","id":"406S","lat":"40.86776","lon":"-73.897174","name":"Kingsbridge Rd"},{"arrival":"18:33:00","id":"D11N","lat":"40.827905","lon":"-73.925651","name":"161 St - Yankee Stadium"},{"arrival":"18:33:00","id":"D11N","lat":"40.827905","lon":"-73.925651","name":"161 St - Yankee Stadium"},{"arrival":"18:33:30","id":"110S","lat":"40.855225","lon":"-73.929412","name":"191 St"},{"arrival":"18:33:30","id":"231S","lat":"40.697466","lon":"-73.993086","name":"Clark St"},{"arrival":"18:33:00","id":"L27N","lat":"40.658733","lon":"-73.899232","name":"New Lots Av"},{"arrival":"18:33:00","id":"S14N","lat":"40.52241","lon":"-74.217847","name":"Pleasant Plains"},{"arrival":"18:33:00","id":"R43N","lat":"40.629742","lon":"-74.02551","name":"77 St"},{"arrival":"18:33:00","id":"L28N","lat":"40.650573","lon":"-73.899485","name":"E 105 St"},{"arrival":"18:33:30","id":"D14N","lat":"40.762862","lon":"-73.981637","name":"7 Av"},{"arrival":"18:33:00","id":"D14N","lat":"40.762862","lon":"-73.981637","name":"7 Av"},{"arrival":"18:33:30","id":"L28S","lat":"40.650573","lon":"-73.899485","name":"E 105 St"},{"arrival":"18:33:00","id":"L28S","lat":"40.650573","lon":"-73.899485","name":"E 105 St"},{"arrival":"18:33:00","id":"119N","lat":"40.799446","lon":"-73.968379","name":"103 St"},{"arrival":"18:33:30","id":"F02S","lat":"40.71047","lon":"-73.793604","name":"169 St"},{"arrival":"18:33:00","id":"132S","lat":"40.737826","lon":"-74.000201","name":"14 St"},{"arrival":"18:33:30","id":"128S","lat":"40.750373","lon":"-73.991057","name":"34 St - Penn Station"},{"arrival":"18:33:30","id":"128S","lat":"40.750373","lon":"-73.991057","name":"34 St - Penn Station"}]}