{"result":[{"arrival":"09:59:00","id":"F24N","lat":"40.666271","lon":"-73.980305","name":"7 Av"},{"arrival":"09:59:30","id":"502N","lat":"40.878663","lon":"-73.838591","name":"Baychester Av"},{"arrival":"09:59:30","id":"238S","lat":"40.671987","lon":"-73.964375","name":"Eastern Pkwy - Brooklyn Museum"},{"arrival":"09:59:30","id":"238S","lat":"40.671987","lon":"-73.964375","name":"Eastern Pkwy - Brooklyn Museum"},{"arrival":"09:59:30","id":"604N","lat":"40.839892","lon":"-73.842952","name":"Westchester Sq - E Tremont Av"},{"arrival":"09:59:30","id":"D40N","lat":"40.577621","lon":"-73.961376","name":"Brighton Beach"},{"arrival":"09:59:30","id":"226N","lat":"40.802098","lon":"-73.949625","name":"116 St"},{"arrival":"09:59:30","id":"M20S","lat":"40.718092","lon":"-73.999892","name":"Canal St"},{"arrival":"09:59:30","id":"A27S","lat":"40.757308","lon":"-73.989735","name":"42 St - Port Authority Bus Terminal"},{"arrival":"09:59:00","id":"A27S","lat":"40.757308","lon":"-73.989735","name":"42 St - Port Authority Bus Terminal"},{"arrival":"09:59:00","id":"628N","lat":"40.768141","lon":"-73.96387","name":"68 St - Hunter College"},{"arrival":"09:59:30","id":"D04N","lat":"40.866978","lon":"-73.893509","name":"Kingsbridge Rd"},{"arrival":"09:59:30","id":"628S","lat":"40.768141","lon":"-73.96387","name":"68 St - Hunter College"},{"arrival":"09:59:00","id":"628S","lat":"40.768141","lon":"-73.96387","name":"68 St - Hunter College"},{"arrival":"09:59:00","id":"628S","lat":"40.768141","lon":"-73.96387","name":"68 St - Hunter College"},{"arrival":"09:59:00","id":"119S","lat":"40.799446","lon":"-73.968379","name":"103 St"},{"arrival":"09:59:00","id":"254S","lat":"40.663515","lon":"-73.902447","name":"Junius St"},{"arrival":"09:59:00","id":"505N","lat":"40.854364","lon":"-73.860495","name":"Morris Park"},{"arrival":"09:59:00","id":"505N","lat":"40.854364","lon":"-73.860495","name":"Morris Park"},{"arrival":"09:59:30","id":"F24S","lat":"40.666271","lon":"-73.980305","name":"7 Av"},{"arrival":"09:59:00","id":"708N","lat":"40.748408","lon":"-73.876613","name":"90 St - Elmhurst Av"},{"arrival":"09:59:00","id":"708N","lat":"40.748408","lon":"-73.876613","name":"90 St - Elmhurst Av"},{"arrival":"09:59:30","id":"621N","lat":"40.804138","lon":"-73.937594","name":"125 St"},{"arrival":"09:59:30","id":"F31S","lat":"40.625322","lon":"-73.976127","name":"Avenue I"},{"arrival":"09:59:30","id":"M12S","lat":"40.70026","lon":"-73.941126","name":"Flushing Av"},{"arrival":"09:59:30","id":"128N","lat":"40.750373","lon":"-73.991057","name":"34 St - Penn Station"},{"arrival":"09:59:00","id":"A40S","lat":"40.699337","lon":"-73.990531","name":"High St"},{"arrival":"09:59:30","id":"218N","lat":"40.822181","lon":"-73.896736","name":"Intervale Av"},{"arrival":"09:59:30","id":"639N","lat":"40.718803","lon":"-74.000193","name":"Canal St"},{"arrival":"09:59:00","id":"N04S","lat":"40.624842","lon":"-73.996353","name":"New Utrecht Av"},{"arrival":"09:59:30","id":"F09S","lat":"40.747846","lon":"-73.946","name":"Court Sq"},{"arrival":"09:59:00","id":"G15S","lat":"40.749669","lon":"-73.898453","name":"65 St"},{"arrival":"09:59:30","id":"G15S","lat":"40.749669","lon":"-73.898453","name":"65 St"},{"arrival":"09:59:30","id":"G15S","lat":"40.749669","lon":"-73.898453","name":"65 St"},{"arrival":"09:59:30","id":"A27N","lat":"40.757308","lon":"-73.989735","name":"42 St - Port Authority Bus Terminal"},{"arrival":"09:59:30","id":"A27N","lat":"40.757308","lon":"-73.989735","name":"42 St - Port Authority Bus Terminal"},{"arrival":"09:59:30","id":"G09S","lat":"40.726523","lon":"-73.852719","name":"67 Av"},{"arrival":"09:59:30","id":"716S","lat":"40.744587","lon":"-73.930997","name":"33 St"},{"arrival":"09:59:30","id":"G15N","lat":"40.749669","lon":"-73.898453","name":"65 St"},{"arrival":"09:59:00","id":"R18S","lat":"40.745494","lon":"-73.988691","name":"28 St"},{"arrival":"09:59:30","id":"D22N","lat":"40.718267","lon":"-73.993753","name":"Grand St"},{"arrival":"09:59:00","id":"R18N","lat":"40.745494","lon":"-73.988691","name":"28 St"},{"arrival":"09:59:00","id":"R18N","lat":"40.745494","lon":"-73.988691","name":"28 St"},{"arrival":"09:59:00","id":"423S","lat":"40.692404","lon":"-73.990151","name":"Borough Hall"},{"arrival":"09:59:00","id":"Q01S","lat":"40.718383","lon":"-74.00046","name":"Canal St"},{"arrival":"09:59:30","id":"902S","lat":"40.755983","lon":"-73.986229","name":"Times Sq - 42 St"},{"arrival":"09:59:00","id":"902S","lat":"40.755983","lon":"-73.986229","name":"Times Sq - 42 St"},{"arrival":"09:59:00","id":"F25N","lat":"40.660365","lon":"-73.979493","name":"15 St - Prospect Park"},{"arrival":"09:59:00","id":"706N","lat":"40.749865","lon":"-73.8627","name":"103 St - Corona Plaza"},{"arrival":"09:59:30","id":"231N","lat":"40.697466","lon":"-73.993086","name":"Clark St"},{"arrival":"09:59:30","id":"231N","lat":"40.697466","lon":"-73.993086","name":"Clark St"},{"arrival":"09:59:30","id":"231S","lat":"40.697466","lon":"-73.993086","name":"Clark St"},{"arrival":"09:59:00","id":"423N","lat":"40.692404","lon":"-73.990151","name":"Borough Hall"},{"arrival":"09:59:00","id":"D04S","lat":"40.866978","lon":"-73.893509","name":"Kingsbridge Rd"},{"arrival":"09:59:00","id":"250S","lat":"40.668897","lon":"-73.932942","name":"Crown Hts - Utica Av"},{"arrival":"09:59:30","id":"101S","lat":"40.889248","lon":"-73.898583","name":"Van Cortlandt Park - 242 St"},{"arrival":"09:59:30","id":"101S","lat":"40.889248","lon":"-73.898583","name":"Van Cortlandt Park - 242 St"},{"arrival":"09:59:30","id":"624S","lat":"40.7906","lon":"-73.947478","name":"103 St"},{"arrival":"09:59:30","id":"624S","lat":"40.7906","lon":"-73.947478","name":"103 St"},{"arrival":"09:59:00","id":"632S","lat":"40.746081","lon":"-73.982076","name":"33 St"},{"arrival":"09:59:30","id":"H12N","lat":"40.588034","lon":"-73.813641","name":"Beach 90 St"},{"arrival":"09:59:00","id":"M11N","lat":"40.697207","lon":"-73.935657","name":"Myrtle Av"},{"arrival":"09:59:00","id":"632N","lat":"40.746081","lon":"-73.982076","name":"33 St"},{"arrival":"09:59:00","id":"F39S","lat":"40.581011","lon":"-73.974574","name":"Neptune Av"},{"arrival":"09:59:00","id":"M05S","lat":"40.704423","lon":"-73.903077","name":"Forest Av"},{"arrival":"09:59:00","id":"624N","lat":"40.7906","lon":"-73.947478","name":"103 St"},{"arrival":"09:59:30","id":"250N","lat":"40.668897","lon":"-73.932942","name":"Crown Hts - Utica Av"},{"arrival":"09:59:30","id":"L21N","lat":"40.682829","lon":"-73.905249","name":"Bushwick Av - Aberdeen St"},{"arrival":"09:59:00","id":"A42N","lat":"40.688484","lon":"-73.985001","name":"Hoyt - Schermerhorn Sts"},{"arrival":"09:59:00","id":"A42N","lat":"40.688484","lon":"-73.985001","name":"Hoyt - Schermerhorn Sts"},{"arrival":"09:59:30","id":"A42N","lat":"40.688484","lon":"-73.985001","name":"Hoyt - Schermerhorn Sts"},{"arrival":"09:59:00","id":"A20N","lat":"40.785868","lon":"-73.968916","name":"86 St"},{"arrival":"09:59:00","id":"416S","lat":"40.813224","lon":"-73.929849","name":"138 St - Grand Concourse"},{"arrival":"09:59:00","id":"416S","lat":"40.813224","lon":"-73.929849","name":"138 St - Grand Concourse"},{"arrival":"09:59:30","id":"720S","lat":"40.742216","lon":"-73.948916","name":"Hunters Point Av"},{"arrival":"09:59:30","id":"720S","lat":"40.742216","lon":"-73.948916","name":"Hunters Point Av"},{"arrival":"09:59:00","id":"G19N","lat":"40.756879","lon":"-73.92074","name":"Steinway St"},{"arrival":"09:59:00","id":"108N","lat":"40.864621","lon":"-73.918822","name":"207 St"},{"arrival":"09:59:30","id":"243N","lat":"40.656652","lon":"-73.9502","name":"Winthrop St"},{"arrival":"09:59:30","id":"243N","lat":"40.656652","lon":"-73.9502","name":"Winthrop St"},{"arrival":"09:59:00","id":"112N","lat":"40.840556","lon":"-73.940133","name":"168 St - Washington Hts"},{"arrival":"09:59:00","id":"L12N","lat":"40.711926","lon":"-73.94067","name":"Grand St"},{"arrival":"09:59:30","id":"124N","lat":"40.77344","lon":"-73.982209","name":"66 St - Lincoln Center"},{"arrival":"09:59:30","id":"A36N","lat":"40.714111","lon":"-74.008585","name":"Chambers St"},{"arrival":"09:59:00","id":"J28N","lat":"40.682893","lon":"-73.910456","name":"Chauncey St"},{"arrival":"09:59:30","id":"A45N","lat":"40.68138","lon":"-73.956848","name":"Franklin Av"},{"arrival":"09:59:00","id":"A45N","lat":"40.68138","lon":"-73.956848","name":"Franklin Av"},{"arrival":"09:59:30","id":"A51N","lat":"40.678334","lon":"-73.905316","name":"Broadway Jct"},{"arrival":"09:59:30","id":"A07N","lat":"40.847391","lon":"-73.939704","name":"175 St"},{"arrival":"09:59:30","id":"G07N","lat":"40.702566","lon":"-73.816859","name":"Jamaica - Van Wyck"},{"arrival":"09:59:00","id":"413N","lat":"40.835537","lon":"-73.9214","name":"167 St"},{"arrival":"09:59:00","id":"A31S","lat":"40.740893","lon":"-74.00169","name":"14 St"},{"arrival":"09:59:00","id":"D21S","lat":"40.725297","lon":"-73.996204","name":"Broadway-Lafayette St"},{"arrival":"09:59:00","id":"D35S","lat":"40.60867","lon":"-73.957734","name":"Kings Hwy"},{"arrival":"09:59:30","id":"F01S","lat":"40.712646","lon":"-73.783817","name":"Jamaica - 179 St"},{"arrival":"09:59:30","id":"R32S","lat":"40.677316","lon":"-73.98311","name":"Union St"},{"arrival":"09:59:30","id":"G20S","lat":"40.752039","lon":"-73.928781","name":"36 St"},{"arrival":"09:59:00","id":"J24N","lat":"40.676992","lon":"-73.898654","name":"Alabama Av"},{"arrival":"09:59:30","id":"F01N","lat":"40.712646","lon":"-73.783817","name":"Jamaica - 179 St"},{"arrival":"09:59:30","id":"235S","lat":"40.684359","lon":"-73.977666","name":"Atlantic Av - Barclays Ctr"},{"arrival":"09:59:00","id":"721S","lat":"40.742626","lon":"-73.953581","name":"Vernon Blvd - Jackson Av"},{"arrival":"09:59:30","id":"235N","lat":"40.684359","lon":"-73.977666","name":"Atlantic Av - Barclays Ctr"},{"arrival":"09:59:30","id":"235N","lat":"40.684359","lon":"-73.977666","name":"Atlantic Av - Barclays Ctr"},{"arrival":"09:59:00","id":"235N","lat":"40.684359","lon":"-73.977666","name":"Atlantic Av - Barclays Ctr"},{"arrival":"09:59:30","id":"221N","lat":"40.816109","lon":"-73.917757","name":"3 Av - 149 St"},{"arrival":"09:59:00","id":"640N","lat":"40.713065","lon":"-74.004131","name":"Brooklyn Bridge - City Hall"},{"arrival":"09:59:30","id":"G33S","lat":"40.689627","lon":"-73.953522","name":"Bedford - Nostrand Avs"},{"arrival":"09:59:30","id":"714N","lat":"40.743132","lon":"-73.918435","name":"46 St"},{"arrival":"09:59:30","id":"R17N","lat":"40.749567","lon":"-73.98795","name":"34 St - Herald Sq"},{"arrival":"09:59:00","id":"106S","lat":"40.874561","lon":"-73.909831","name":"Marble Hill - 225 St"},{"arrival":"09:59:00","id":"F21S","lat":"40.680303","lon":"-73.995048","name":"Carroll St"},{"arrival":"09:59:00","id":"640S","lat":"40.713065","lon":"-74.004131","name":"Brooklyn Bridge - City Hall"},{"arrival":"09:59:30","id":"R22S","lat":"40.724329","lon":"-73.997702","name":"Prince St"},{"arrival":"09:59:00","id":"420S","lat":"40.704817","lon":"-74.014065","name":"Bowling Green"},{"arrival":"09:59:30","id":"D12S","lat":"40.830135","lon":"-73.938209","name":"155 St"},{"arrival":"09:59:00","id":"F06N","lat":"40.714441","lon":"-73.831008","name":"Kew Gardens - Union Tpke"},{"arrival":"09:59:00","id":"F30N","lat":"40.629755","lon":"-73.976971","name":"18 Av"},{"arrival":"09:59:00","id":"M14N","lat":"40.70687","lon":"-73.953431","name":"Hewes St"},{"arrival":"09:59:30","id":"F06S","lat":"40.714441","lon":"-73.831008","name":"Kew Gardens - Union Tpke"},{"arrival":"09:59:00","id":"A61S","lat":"40.680429","lon":"-73.843853","name":"Rockaway Blvd"},{"arrival":"09:59:00","id":"M09S","lat":"40.698664","lon":"-73.919711","name":"Knickerbocker Av"},{"arrival":"09:59:30","id":"L13S","lat":"40.707739","lon":"-73.93985","name":"Montrose Av"},{"arrival":"09:59:30","id":"L13S","lat":"40.707739","lon":"-73.93985","name":"Montrose Av"},{"arrival":"09:59:00","id":"M20N","lat":"40.718092","lon":"-73.999892","name":"Canal St"},{"arrival":"09:59:30","id":"D43S","lat":"40.577422","lon":"-73.981233","name":"Coney Island - Stillwell Av"},{"arrival":"09:59:30","id":"H15N","lat":"40.580903","lon":"-73.835592","name":"Rockaway Park - Beach 116 St"},{"arrival":"09:59:30","id":"104N","lat":"40.878856","lon":"-73.904834","name":"231 St"},{"arrival":"09:59:30","id":"635N","lat":"40.734673","lon":"-73.989951","name":"14 St - Union Sq"},{"arrival":"09:59:00","id":"A06S","lat":"40.851695","lon":"-73.937969","name":"181 St"},{"arrival":"09:59:00","id":"A06S","lat":"40.851695","lon":"-73.937969","name":"181 St"},{"arrival":"09:59:00","id":"R15S","lat":"40.759901","lon":"-73.984139","name":"49 St"},{"arrival":"09:59:00","id":"R15S","lat":"40.759901","lon":"-73.984139","name":"49 St"},{"arrival":"09:59:30","id":"R15S","lat":"40.759901","lon":"-73.984139","name":"49 St"},{"arrival":"09:59:30","id":"629N","lat":"40.762526","lon":"-73.967967","name":"59 St"},{"arrival":"09:59:00","id":"257N","lat":"40.666235","lon":"-73.884079","name":"New Lots Av"},{"arrival":"09:59:00","id":"257S","lat":"40.666235","lon":"-73.884079","name":"New Lots Av"},{"arrival":"09:59:30","id":"629S","lat":"40.762526","lon":"-73.967967","name":"59 St"},{"arrival":"09:59:30","id":"635S","lat":"40.734673","lon":"-73.989951","name":"14 St - Union Sq"},{"arrival":"09:59:00","id":"635S","lat":"40.734673","lon":"-73.989951","name":"14 St - Union Sq"},{"arrival":"09:59:00","id":"L05N","lat":"40.732849","lon":"-73.986122","name":"3 Av"},{"arrival":"09:59:30","id":"A41N","lat":"40.692338","lon":"-73.987342","name":"Jay St - MetroTech"},{"arrival":"09:59:30","id":"113S","lat":"40.834041","lon":"-73.94489","name":"157 St"},{"arrival":"09:59:30","id":"M04N","lat":"40.706186","lon":"-73.895877","name":"Fresh Pond Rd"},{"arrival":"09:59:00","id":"L11N","lat":"40.714565","lon":"-73.944053","name":"Graham Av"},{"arrival":"09:59:30","id":"B17N","lat":"40.619589","lon":"-73.998864","name":"71 St"},{"arrival":"09:59:30","id":"A44N","lat":"40.683263","lon":"-73.965838","name":"Clinton - Washington Avs"},{"arrival":"09:59:30","id":"J29S","lat":"40.68637","lon":"-73.916559","name":"Halsey St"},{"arrival":"09:59:00","id":"216S","lat":"40.829993","lon":"-73.891865","name":"Freeman St"},{"arrival":"09:59:00","id":"216S","lat":"40.829993","lon":"-73.891865","name":"Freeman St"},{"arrival":"09:59:30","id":"F12N","lat":"40.760167","lon":"-73.975224","name":"5 Av\/53 St"},{"arrival":"09:59:30","id":"134S","lat":"40.728251","lon":"-74.005367","name":"Houston St"},{"arrival":"09:59:30","id":"216N","lat":"40.829993","lon":"-73.891865","name":"Freeman St"},{"arrival":"09:59:00","id":"617S","lat":"40.805368","lon":"-73.914042","name":"Cypress Av"},{"arrival":"09:59:30","id":"N05N","lat":"40.620671","lon":"-73.990414","name":"18 Av"},{"arrival":"09:59:30","id":"G08N","lat":"40.721691","lon":"-73.844521","name":"Forest Hills - 71 Av"},{"arrival":"09:59:30","id":"G08N","lat":"40.721691","lon":"-73.844521","name":"Forest Hills - 71 Av"},{"arrival":"09:59:00","id":"204S","lat":"40.898379","lon":"-73.854376","name":"Nereid Av"},{"arrival":"09:59:30","id":"N05S","lat":"40.620671","lon":"-73.990414","name":"18 Av"},{"arrival":"09:59:30","id":"L20N","lat":"40.688764","lon":"-73.904046","name":"Wilson Av"},{"arrival":"09:59:00","id":"D19S","lat":"40.738228","lon":"-73.996209","name":"14 St"},{"arrival":"09:59:00","id":"709N","lat":"40.747659","lon":"-73.883697","name":"82 St - Jackson Hts"},{"arrival":"09:59:30","id":"D16S","lat":"40.754222","lon":"-73.984569","name":"42 St - Bryant Pk"},{"arrival":"09:59:30","id":"222N","lat":"40.81841","lon":"-73.926718","name":"149 St - Grand Concourse"},{"arrival":"09:59:30","id":"608S","lat":"40.833226","lon":"-73.860816","name":"Parkchester"},{"arrival":"09:59:30","id":"608S","lat":"40.833226","lon":"-73.860816","name":"Parkchester"},{"arrival":"09:59:00","id":"A63N","lat":"40.681711","lon":"-73.837683","name":"104 St"},{"arrival":"09:59:30","id":"709S","lat":"40.747659","lon":"-73.883697","name":"82 St - Jackson Hts"},{"arrival":"09:59:30","id":"234S","lat":"40.688246","lon":"-73.980492","name":"Nevins St"},{"arrival":"09:59:00","id":"F22S","lat":"40.67358","lon":"-73.995959","name":"Smith - 9 Sts"},{"arrival":"09:59:30","id":"R16N","lat":"40.754672","lon":"-73.986754","name":"Times Sq - 42 St"},{"arrival":"09:59:30","id":"M16N","lat":"40.708359","lon":"-73.957757","name":"Marcy Av"},{"arrival":"09:59:00","id":"631S","lat":"40.751776","lon":"-73.976848","name":"Grand Central - 42 St"},{"arrival":"09:59:30","id":"A24N","lat":"40.768296","lon":"-73.981736","name":"59 St - Columbus Circle"},{"arrival":"09:59:30","id":"631N","lat":"40.751776","lon":"-73.976848","name":"Grand Central - 42 St"},{"arrival":"09:59:30","id":"H11S","lat":"40.603995","lon":"-73.755405","name":"Far Rockaway - Mott Av"},{"arrival":"09:59:00","id":"M16S","lat":"40.708359","lon":"-73.957757","name":"Marcy Av"},{"arrival":"09:59:00","id":"253N","lat":"40.662549","lon":"-73.908946","name":"Rockaway Av"},{"arrival":"09:59:00","id":"253N","lat":"40.662549","lon":"-73.908946","name":"Rockaway Av"},{"arrival":"09:59:00","id":"415N","lat":"40.818375","lon":"-73.927351","name":"149 St - Grand Concourse"},{"arrival":"09:59:30","id":"217N","lat":"40.824073","lon":"-73.893064","name":"Simpson St"},{"arrival":"09:59:00","id":"D31N","lat":"40.635082","lon":"-73.962793","name":"Newkirk Av"},{"arrival":"09:59:00","id":"J16S","lat":"40.692435","lon":"-73.86001","name":"85 St - Forest Pkwy"},{"arrival":"09:59:30","id":"415S","lat":"40.818375","lon":"-73.927351","name":"149 St - Grand Concourse"},{"arrival":"09:59:30","id":"415S","lat":"40.818375","lon":"-73.927351","name":"149 St - Grand Concourse"},{"arrival":"09:59:00","id":"D17S","lat":"40.749719","lon":"-73.987823","name":"34 St - Herald Sq"},{"arrival":"09:59:30","id":"244N","lat":"40.650843","lon":"-73.949575","name":"Church Av"},{"arrival":"09:59:00","id":"A15S","lat":"40.811109","lon":"-73.952343","name":"125 St"},{"arrival":"09:59:30","id":"A15S","lat":"40.811109","lon":"-73.952343","name":"125 St"},{"arrival":"09:59:00","id":"A09S","lat":"40.840719","lon":"-73.939561","name":"168 St"},{"arrival":"09:59:00","id":"137S","lat":"40.715478","lon":"-74.009266","name":"Chambers St"},{"arrival":"09:59:30","id":"R42S","lat":"40.634967","lon":"-74.023377","name":"Bay Ridge Av"},{"arrival":"09:59:30","id":"A09N","lat":"40.840719","lon":"-73.939561","name":"168 St"},{"arrival":"09:59:00","id":"244S","lat":"40.650843","lon":"-73.949575","name":"Church Av"},{"arrival":"09:59:30","id":"A52N","lat":"40.674542","lon":"-73.896548","name":"Liberty Av"},{"arrival":"09:59:00","id":"M22S","lat":"40.710374","lon":"-74.007582","name":"Fulton St"},{"arrival":"09:59:00","id":"A22S","lat":"40.775594","lon":"-73.97641","name":"72 St"},{"arrival":"09:59:30","id":"213S","lat":"40.841894","lon":"-73.873488","name":"E 180 St"},{"arrival":"09:59:30","id":"213S","lat":"40.841894","lon":"-73.873488","name":"E 180 St"},{"arrival":"09:59:30","id":"D17N","lat":"40.749719","lon":"-73.987823","name":"34 St - Herald Sq"},{"arrival":"09:59:30","id":"D34N","lat":"40.617618","lon":"-73.959399","name":"Avenue M"},{"arrival":"09:59:30","id":"R31N","lat":"40.683666","lon":"-73.97881","name":"Atlantic Av - Barclays Ctr"},{"arrival":"09:59:30","id":"R31N","lat":"40.683666","lon":"-73.97881","name":"Atlantic Av - Barclays Ctr"},{"arrival":"09:59:30","id":"D26S","lat":"40.661614","lon":"-73.962246","name":"Prospect Park"},{"arrival":"09:59:00","id":"D26S","lat":"40.661614","lon":"-73.962246","name":"Prospect Park"},{"arrival":"09:59:30","id":"A53S","lat":"40.67271","lon":"-73.890358","name":"Van Siclen Av"},{"arrival":"09:59:30","id":"130S","lat":"40.744081","lon":"-73.995657","name":"23 St"},{"arrival":"09:59:30","id":"F29S","lat":"40.636119","lon":"-73.978172","name":"Ditmas Av"},{"arrival":"09:59:30","id":"613N","lat":"40.820948","lon":"-73.890549","name":"Hunts Point Av"},{"arrival":"09:59:30","id":"702S","lat":"40.754622","lon":"-73.845625","name":"Mets - Willets Point"},{"arrival":"09:59:30","id":"F05S","lat":"40.709179","lon":"-73.820574","name":"Briarwood - Van Wyck Blvd"},{"arrival":"09:59:30","id":"613S","lat":"40.820948","lon":"-73.890549","name":"Hunts Point Av"},{"arrival":"09:59:30","id":"613S","lat":"40.820948","lon":"-73.890549","name":"Hunts Point Av"},{"arrival":"09:59:00","id":"R13N","lat":"40.764811","lon":"-73.973347","name":"5 Av\/59 St"},{"arrival":"09:59:30","id":"D33S","lat":"40.625039","lon":"-73.960803","name":"Avenue J"},{"arrival":"09:59:00","id":"A17S","lat":"40.800603","lon":"-73.958161","name":"Cathedral Pkwy (110 St)"},{"arrival":"09:59:30","id":"L17N","lat":"40.699814","lon":"-73.911586","name":"Myrtle - Wyckoff Avs"},{"arrival":"09:59:30","id":"L17N","lat":"40.699814","lon":"-73.911586","name":"Myrtle - Wyckoff Avs"},{"arrival":"09:59:00","id":"R04S","lat":"40.766779","lon":"-73.921479","name":"30 Av"},{"arrival":"09:59:00","id":"L17S","lat":"40.699814","lon":"-73.911586","name":"Myrtle - Wyckoff Avs"},{"arrival":"09:59:30","id":"135S","lat":"40.722854","lon":"-74.006277","name":"Canal St"},{"arrival":"09:59:00","id":"246S","lat":"40.639967","lon":"-73.948411","name":"Newkirk Av"},{"arrival":"09:59:00","id":"F15S","lat":"40.718611","lon":"-73.988114","name":"Delancey St"},{"arrival":"09:59:30","id":"N07N","lat":"40.611815","lon":"-73.981848","name":"Bay Pkwy"},{"arrival":"09:59:00","id":"205S","lat":"40.893193","lon":"-73.857473","name":"233 St"},{"arrival":"09:59:00","id":"205S","lat":"40.893193","lon":"-73.857473","name":"233 St"},{"arrival":"09:59:30","id":"R33N","lat":"40.670847","lon":"-73.988302","name":"9 St"},{"arrival":"09:59:00","id":"D20N","lat":"40.732338","lon":"-74.000495","name":"W 4 St"},{"arrival":"09:59:30","id":"D20N","lat":"40.732338","lon":"-74.000495","name":"W 4 St"},{"arrival":"09:59:30","id":"D20N","lat":"40.732338","lon":"-74.000495","name":"W 4 St"},{"arrival":"09:59:30","id":"L25S","lat":"40.669367","lon":"-73.901975","name":"Sutter Av"},{"arrival":"09:59:30","id":"D20S","lat":"40.732338","lon":"-74.000495","name":"W 4 St"},{"arrival":"09:59:30","id":"J24S","lat":"40.676992","lon":"-73.898654","name":"Alabama Av"},{"arrival":"09:59:30","id":"J24S","lat":"40.676992","lon":"-73.898654","name":"Alabama Av"},{"arrival":"09:59:30","id":"L29N","lat":"40.646654","lon":"-73.90185","name":"Canarsie - Rockaway Pkwy"},{"arrival":"09:59:00","id":"611N","lat":"40.828584","lon":"-73.879159","name":"Elder Av"},{"arrival":"09:59:00","id":"F07S","lat":"40.718331","lon":"-73.837324","name":"75 Av"},{"arrival":"09:59:00","id":"G21N","lat":"40.748973","lon":"-73.937243","name":"Queens Plaza"},{"arrival":"09:59:30","id":"712N","lat":"40.74563","lon":"-73.902984","name":"Woodside - 61 St"},{"arrival":"09:59:30","id":"712N","lat":"40.74563","lon":"-73.902984","name":"Woodside - 61 St"},{"arrival":"09:59:30","id":"712N","lat":"40.74563","lon":"-73.902984","name":"Woodside - 61 St"},{"arrival":"09:59:00","id":"224S","lat":"40.814229","lon":"-73.94077","name":"135 St"},{"arrival":"09:59:30","id":"224S","lat":"40.814229","lon":"-73.94077","name":"135 St"},{"arrival":"09:59:00","id":"224S","lat":"40.814229","lon":"-73.94077","name":"135 St"},{"arrival":"09:59:00","id":"630S","lat":"40.757107","lon":"-73.97192","name":"51 St"},{"arrival":"09:59:00","id":"103S","lat":"40.884667","lon":"-73.90087","name":"238 St"},{"arrival":"09:59:00","id":"H10N","lat":"40.600066","lon":"-73.761353","name":"Beach 25 St"},{"arrival":"09:59:00","id":"103N","lat":"40.884667","lon":"-73.90087","name":"238 St"},{"arrival":"09:59:30","id":"630N","lat":"40.757107","lon":"-73.97192","name":"51 St"},{"arrival":"09:59:00","id":"224N","lat":"40.814229","lon":"-73.94077","name":"135 St"},{"arrival":"09:59:00","id":"626N","lat":"40.779492","lon":"-73.955589","name":"86 St"},{"arrival":"09:59:00","id":"626N","lat":"40.779492","lon":"-73.955589","name":"86 St"},{"arrival":"09:59:00","id":"626N","lat":"40.779492","lon":"-73.955589","name":"86 St"},{"arrival":"09:59:30","id":"252N","lat":"40.661453","lon":"-73.916327","name":"Saratoga Av"},{"arrival":"09:59:00","id":"248N","lat":"40.669847","lon":"-73.950466","name":"Nostrand Av"},{"arrival":"09:59:00","id":"A33N","lat":"40.726227","lon":"-74.003739","name":"Spring St"},{"arrival":"09:59:30","id":"402N","lat":"40.87975","lon":"-73.884655","name":"Mosholu Pkwy"},{"arrival":"09:59:30","id":"626S","lat":"40.779492","lon":"-73.955589","name":"86 St"},{"arrival":"09:59:30","id":"110S","lat":"40.855225","lon":"-73.929412","name":"191 St"},{"arrival":"09:59:30","id":"110S","lat":"40.855225","lon":"-73.929412","name":"191 St"},{"arrival":"09:59:30","id":"241N","lat":"40.667883","lon":"-73.950683","name":"President St"},{"arrival":"09:59:30","id":"G26S","lat":"40.731352","lon":"-73.954449","name":"Greenpoint Av"},{"arrival":"09:59:30","id":"110N","lat":"40.855225","lon":"-73.929412","name":"191 St"},{"arrival":"09:59:00","id":"G06S","lat":"40.700486","lon":"-73.807969","name":"Sutphin Blvd - Archer Av - JFK Airport"},{"arrival":"09:59:00","id":"L10N","lat":"40.714063","lon":"-73.950275","name":"Lorimer St"},{"arrival":"09:59:00","id":"L29S","lat":"40.646654","lon":"-73.90185","name":"Canarsie - Rockaway Pkwy"},{"arrival":"09:59:30","id":"B04S","lat":"40.754203","lon":"-73.942836","name":"21 St - Queensbridge"},{"arrival":"09:59:00","id":"A28S","lat":"40.752287","lon":"-73.993391","name":"34 St - Penn Station"},{"arrival":"09:59:30","id":"B16S","lat":"40.626472","lon":"-73.996895","name":"62 St"},{"arrival":"09:59:00","id":"B04N","lat":"40.754203","lon":"-73.942836","name":"21 St - Queensbridge"},{"arrival":"09:59:00","id":"A28N","lat":"40.752287","lon":"-73.993391","name":"34 St - Penn Station"},{"arrival":"09:59:30","id":"A47S","lat":"40.679921","lon":"-73.940858","name":"Kingston - Throop Avs"},{"arrival":"09:59:00","id":"131N","lat":"40.74104","lon":"-73.997871","name":"18 St"},{"arrival":"09:59:00","id":"131N","lat":"40.74104","lon":"-73.997871","name":"18 St"},{"arrival":"09:59:30","id":"G12N","lat":"40.737015","lon":"-73.877223","name":"Grand Av - Newtown"},{"arrival":"09:59:30","id":"G12N","lat":"40.737015","lon":"-73.877223","name":"Grand Av - Newtown"},{"arrival":"09:59:00","id":"G12S","lat":"40.737015","lon":"-73.877223","name":"Grand Av - Newtown"},{"arrival":"09:59:30","id":"131S","lat":"40.74104","lon":"-73.997871","name":"18 St"},{"arrival":"09:59:00","id":"701S","lat":"40.7596","lon":"-73.83003","name":"Flushing - Main St"},{"arrival":"09:59:30","id":"F34S","lat":"40.608944","lon":"-73.973022","name":"Avenue P"},{"arrival":"09:59:30","id":"F34N","lat":"40.608944","lon":"-73.973022","name":"Avenue P"},{"arrival":"09:59:30","id":"A46S","lat":"40.680438","lon":"-73.950426","name":"Nostrand Av"},{"arrival":"09:59:00","id":"A46S","lat":"40.680438","lon":"-73.950426","name":"Nostrand Av"},{"arrival":"09:59:00","id":"608N","lat":"40.833226","lon":"-73.860816","name":"Parkchester"},{"arrival":"09:59:30","id":"F31N","lat":"40.625322","lon":"-73.976127","name":"Avenue I"},{"arrival":"09:59:30","id":"A21N","lat":"40.781433","lon":"-73.972143","name":"81 St - Museum of Natural History"},{"arrival":"09:59:30","id":"D08N","lat":"40.8459","lon":"-73.910136","name":"174-175 Sts"},{"arrival":"09:59:30","id":"601N","lat":"40.852462","lon":"-73.828121","name":"Pelham Bay Park"},{"arrival":"09:59:30","id":"601N","lat":"40.852462","lon":"-73.828121","name":"Pelham Bay Park"},{"arrival":"09:59:00","id":"601N","lat":"40.852462","lon":"-73.828121","name":"Pelham Bay Park"},{"arrival":"09:59:30","id":"R11S","lat":"40.76266","lon":"-73.967258","name":"Lexington Av\/59 St"},{"arrival":"09:59:30","id":"716N","lat":"40.744587","lon":"-73.930997","name":"33 St"},{"arrival":"09:59:30","id":"D15N","lat":"40.758663","lon":"-73.981329","name":"47-50 Sts - Rockefeller Ctr"},{"arrival":"09:59:30","id":"639S","lat":"40.718803","lon":"-74.000193","name":"Canal St"},{"arrival":"09:59:00","id":"G26N","lat":"40.731352","lon":"-73.954449","name":"Greenpoint Av"},{"arrival":"09:59:00","id":"G26N","lat":"40.731352","lon":"-73.954449","name":"Greenpoint Av"},{"arrival":"09:59:30","id":"R11N","lat":"40.76266","lon":"-73.967258","name":"Lexington Av\/59 St"},{"arrival":"09:59:30","id":"233S","lat":"40.690545","lon":"-73.985065","name":"Hoyt St"},{"arrival":"09:59:00","id":"J15S","lat":"40.693879","lon":"-73.851576","name":"Woodhaven Blvd"},{"arrival":"09:59:30","id":"622N","lat":"40.798629","lon":"-73.941617","name":"116 St"},{"arrival":"09:59:30","id":"228S","lat":"40.713051","lon":"-74.008811","name":"Park Pl"},{"arrival":"09:59:00","id":"J15N","lat":"40.693879","lon":"-73.851576","name":"Woodhaven Blvd"},{"arrival":"09:59:30","id":"A25S","lat":"40.762456","lon":"-73.985984","name":"50 St"},{"arrival":"09:59:30","id":"A25S","lat":"40.762456","lon":"-73.985984","name":"50 St"},{"arrival":"09:59:00","id":"S01N","lat":"40.680596","lon":"-73.955827","name":"Franklin Av"},{"arrival":"09:59:00","id":"F25S","lat":"40.660365","lon":"-73.979493","name":"15 St - Prospect Park"},{"arrival":"09:59:30","id":"114N","lat":"40.826551","lon":"-73.95036","name":"145 St"},{"arrival":"09:59:30","id":"A12S","lat":"40.824783","lon":"-73.944216","name":"145 St"},{"arrival":"09:59:00","id":"A12S","lat":"40.824783","lon":"-73.944216","name":"145 St"},{"arrival":"09:59:30","id":"F16N","lat":"40.713715","lon":"-73.990173","name":"East Broadway"},{"arrival":"09:59:00","id":"245S","lat":"40.645098","lon":"-73.948959","name":"Beverly Rd"},{"arrival":"09:59:30","id":"L02N","lat":"40.737335","lon":"-73.996786","name":"6 Av"},{"arrival":"09:59:30","id":"138N","lat":"40.711835","lon":"-74.012188","name":"Cortlandt St"},{"arrival":"09:59:00","id":"138N","lat":"40.711835","lon":"-74.012188","name":"Cortlandt St"},{"arrival":"09:59:30","id":"A05N","lat":"40.859022","lon":"-73.93418","name":"190 St"},{"arrival":"09:59:00","id":"L16S","lat":"40.703811","lon":"-73.918425","name":"DeKalb Av"},{"arrival":"09:59:30","id":"G32S","lat":"40.694568","lon":"-73.949046","name":"Myrtle - Willoughby Avs"},{"arrival":"09:59:00","id":"H14S","lat":"40.583209","lon":"-73.827559","name":"Beach 105 St"},{"arrival":"09:59:00","id":"S25N","lat":"40.588849","lon":"-74.09609","name":"Dongan Hills"},{"arrival":"09:59:00","id":"S25N","lat":"40.588849","lon":"-74.09609","name":"Dongan Hills"},{"arrival":"09:59:00","id":"S25N","lat":"40.588849","lon":"-74.09609","name":"Dongan Hills"},{"arrival":"09:59:00","id":"111N","lat":"40.849505","lon":"-73.933596","name":"181 St"},{"arrival":"09:59:30","id":"A33S","lat":"40.726227","lon":"-74.003739","name":"Spring St"},{"arrival":"09:59:30","id":"A33S","lat":"40.726227","lon":"-74.003739","name":"Spring St"},{"arrival":"09:59:30","id":"R41S","lat":"40.641362","lon":"-74.017881","name":"59 St"},{"arrival":"09:59:00","id":"R41N","lat":"40.641362","lon":"-74.017881","name":"59 St"},{"arrival":"09:59:30","id":"219N","lat":"40.819585","lon":"-73.90177","name":"Prospect Av"},{"arrival":"09:59:00","id":"R30N","lat":"40.690635","lon":"-73.981824","name":"DeKalb Av"},{"arrival":"09:59:00","id":"R30N","lat":"40.690635","lon":"-73.981824","name":"DeKalb Av"},{"arrival":"09:59:00","id":"210S","lat":"40.865462","lon":"-73.867352","name":"Allerton Av"},{"arrival":"09:59:30","id":"116N","lat":"40.815581","lon":"-73.958372","name":"125 St"},{"arrival":"09:59:00","id":"116N","lat":"40.815581","lon":"-73.958372","name":"125 St"},{"arrival":"09:59:00","id":"G32N","lat":"40.694568","lon":"-73.949046","name":"Myrtle - Willoughby Avs"},{"arrival":"09:59:30","id":"G32N","lat":"40.694568","lon":"-73.949046","name":"Myrtle - Willoughby Avs"},{"arrival":"09:59:30","id":"A14S","lat":"40.817894","lon":"-73.947649","name":"135 St"},{"arrival":"09:59:30","id":"120N","lat":"40.793919","lon":"-73.972323","name":"96 St"},{"arrival":"09:59:00","id":"D27S","lat":"40.655292","lon":"-73.961495","name":"Parkside Av"},{"arrival":"09:59:00","id":"G05N","lat":"40.702147","lon":"-73.801109","name":"Jamaica Center - Parsons\/Archer"},{"arrival":"09:59:30","id":"210N","lat":"40.865462","lon":"-73.867352","name":"Allerton Av"},{"arrival":"09:59:30","id":"210N","lat":"40.865462","lon":"-73.867352","name":"Allerton Av"},{"arrival":"09:59:30","id":"116S","lat":"40.815581","lon":"-73.958372","name":"125 St"},{"arrival":"09:59:00","id":"N03N","lat":"40.631386","lon":"-74.005351","name":"Fort Hamilton Pkwy"},{"arrival":"09:59:00","id":"D27N","lat":"40.655292","lon":"-73.961495","name":"Parkside Av"},{"arrival":"09:59:30","id":"A61N","lat":"40.680429","lon":"-73.843853","name":"Rockaway Blvd"},{"arrival":"09:59:30","id":"A38N","lat":"40.710197","lon":"-74.007691","name":"Fulton St"},{"arrival":"09:59:00","id":"723S","lat":"40.751431","lon":"-73.976041","name":"Grand Central - 42 St"},{"arrival":"09:59:30","id":"723S","lat":"40.751431","lon":"-73.976041","name":"Grand Central - 42 St"},{"arrival":"09:59:00","id":"A38S","lat":"40.710197","lon":"-74.007691","name":"Fulton St"},{"arrival":"09:59:00","id":"M11S","lat":"40.697207","lon":"-73.935657","name":"Myrtle Av"},{"arrival":"09:59:00","id":"S20S","lat":"40.5564","lon":"-74.136907","name":"Bay Terrace"},{"arrival":"09:59:00","id":"S20S","lat":"40.5564","lon":"-74.136907","name":"Bay Terrace"},{"arrival":"09:59:00","id":"S20S","lat":"40.5564","lon":"-74.136907","name":"Bay Terrace"},{"arrival":"09:59:30","id":"R20N","lat":"40.735736","lon":"-73.990568","name":"14 St - Union Sq"},{"arrival":"09:59:00","id":"R30S","lat":"40.690635","lon":"-73.981824","name":"DeKalb Av"},{"arrival":"09:59:30","id":"R20S","lat":"40.735736","lon":"-73.990568","name":"14 St - Union Sq"},{"arrival":"09:59:00","id":"D41S","lat":"40.576312","lon":"-73.968501","name":"Ocean Pkwy"},{"arrival":"09:59:30","id":"D14S","lat":"40.762862","lon":"-73.981637","name":"7 Av"},{"arrival":"09:59:30","id":"D14S","lat":"40.762862","lon":"-73.981637","name":"7 Av"},{"arrival":"09:59:30","id":"F32N","lat":"40.620769","lon":"-73.975264","name":"Bay Pkwy"},{"arrival":"09:59:00","id":"707S","lat":"40.749145","lon":"-73.869527","name":"Junction Blvd"},{"arrival":"09:59:00","id":"707S","lat":"40.749145","lon":"-73.869527","name":"Junction Blvd"},{"arrival":"09:59:00","id":"R29S","lat":"40.69218","lon":"-73.985942","name":"Jay St - MetroTech"},{"arrival":"09:59:30","id":"F32S","lat":"40.620769","lon":"-73.975264","name":"Bay Pkwy"},{"arrival":"09:59:00","id":"723N","lat":"40.751431","lon":"-73.976041","name":"Grand Central - 42 St"},{"arrival":"09:59:30","id":"239S","lat":"40.670682","lon":"-73.958131","name":"Franklin Av"},{"arrival":"09:59:30","id":"239S","lat":"40.670682","lon":"-73.958131","name":"Franklin Av"},{"arrival":"09:59:30","id":"M06N","lat":"40.702762","lon":"-73.90774","name":"Seneca Av"},{"arrival":"09:59:00","id":"503S","lat":"40.869526","lon":"-73.846384","name":"Gun Hill Rd"},{"arrival":"09:59:00","id":"503S","lat":"40.869526","lon":"-73.846384","name":"Gun Hill Rd"},{"arrival":"09:59:30","id":"607N","lat":"40.834255","lon":"-73.851222","name":"Castle Hill Av"},{"arrival":"09:59:00","id":"239N","lat":"40.670682","lon":"-73.958131","name":"Franklin Av"},{"arrival":"09:59:00","id":"239N","lat":"40.670682","lon":"-73.958131","name":"Franklin Av"},{"arrival":"09:59:00","id":"239N","lat":"40.670682","lon":"-73.958131","name":"Franklin Av"},{"arrival":"09:59:00","id":"637N","lat":"40.725915","lon":"-73.994659","name":"Bleecker St"},{"arrival":"09:59:00","id":"A32N","lat":"40.732338","lon":"-74.000495","name":"W 4 St"},{"arrival":"09:59:30","id":"A32N","lat":"40.732338","lon":"-74.000495","name":"W 4 St"},{"arrival":"09:59:30","id":"A32N","lat":"40.732338","lon":"-74.000495","name":"W 4 St"},{"arrival":"09:59:30","id":"N03S","lat":"40.631386","lon":"-74.005351","name":"Fort Hamilton Pkwy"},{"arrival":"09:59:00","id":"118S","lat":"40.803967","lon":"-73.966847","name":"Cathedral Pkwy"},{"arrival":"09:59:00","id":"139S","lat":"40.707513","lon":"-74.013783","name":"Rector St"},{"arrival":"09:59:00","id":"109N","lat":"40.860531","lon":"-73.925536","name":"Dyckman St"},{"arrival":"09:59:30","id":"125S","lat":"40.768247","lon":"-73.981929","name":"59 St - Columbus Circle"},{"arrival":"09:59:00","id":"B21N","lat":"40.601875","lon":"-73.993728","name":"Bay Pkwy"},{"arrival":"09:59:00","id":"D24S","lat":"40.68446","lon":"-73.97689","name":"Atlantic Av - Barclays Ctr"},{"arrival":"09:59:30","id":"132N","lat":"40.737826","lon":"-74.000201","name":"14 St"},{"arrival":"09:59:30","id":"132N","lat":"40.737826","lon":"-74.000201","name":"14 St"},{"arrival":"09:59:30","id":"132N","lat":"40.737826","lon":"-74.000201","name":"14 St"},{"arrival":"09:59:00","id":"F02S","lat":"40.71047","lon":"-73.793604","name":"169 St"},{"arrival":"09:59:00","id":"214N","lat":"40.840295","lon":"-73.880049","name":"West Farms Sq - E Tremont Av"},{"arrival":"09:59:30","id":"206N","lat":"40.888022","lon":"-73.860341","name":"225 St"},{"arrival":"09:59:30","id":"R36S","lat":"40.655144","lon":"-74.003549","name":"36 St"},{"arrival":"09:59:00","id":"G14S","lat":"40.746644","lon":"-73.891338","name":"Jackson Hts - Roosevelt Av"},{"arrival":"09:59:00","id":"G14S","lat":"40.746644","lon":"-73.891338","name":"Jackson Hts - Roosevelt Av"},{"arrival":"09:59:30","id":"D39S","lat":"40.586896","lon":"-73.954155","name":"Sheepshead Bay"},{"arrival":"09:59:30","id":"701N","lat":"40.7596","lon":"-73.83003","name":"Flushing - Main St"},{"arrival":"09:59:30","id":"615N","lat":"40.812118","lon":"-73.904098","name":"E 149 St"},{"arrival":"09:59:00","id":"A34S","lat":"40.720824","lon":"-74.005229","name":"Canal St"},{"arrival":"09:59:30","id":"R36N","lat":"40.655144","lon":"-74.003549","name":"36 St"},{"arrival":"09:59:30","id":"R36N","lat":"40.655144","lon":"-74.003549","name":"36 St"},{"arrival":"09:59:00","id":"G14N","lat":"40.746644","lon":"-73.891338","name":"Jackson Hts - Roosevelt Av"},{"arrival":"09:59:00","id":"G14N","lat":"40.746644","lon":"-73.891338","name":"Jackson Hts - Roosevelt Av"},{"arrival":"09:59:00","id":"236S","lat":"40.680829","lon":"-73.975098","name":"Bergen St"},{"arrival":"09:59:00","id":"602S","lat":"40.84681","lon":"-73.832569","name":"Buhre Av"},{"arrival":"09:59:00","id":"618S","lat":"40.807566","lon":"-73.91924","name":"Brook Av"},{"arrival":"09:59:00","id":"618S","lat":"40.807566","lon":"-73.91924","name":"Brook Av"},{"arrival":"09:59:30","id":"618N","lat":"40.807566","lon":"-73.91924","name":"Brook Av"},{"arrival":"09:59:30","id":"L22S","lat":"40.678856","lon":"-73.90324","name":"Broadway Jct"},{"arrival":"09:59:30","id":"236N","lat":"40.680829","lon":"-73.975098","name":"Bergen St"},{"arrival":"09:59:00","id":"B22S","lat":"40.597704","lon":"-73.986829","name":"25 Av"},{"arrival":"09:59:00","id":"634N","lat":"40.739864","lon":"-73.986599","name":"23 St"},{"arrival":"09:59:30","id":"634N","lat":"40.739864","lon":"-73.986599","name":"23 St"},{"arrival":"09:59:00","id":"220N","lat":"40.81649","lon":"-73.907807","name":"Jackson Av"},{"arrival":"09:59:00","id":"R06S","lat":"40.756804","lon":"-73.929575","name":"36 Av"},{"arrival":"09:59:00","id":"R06S","lat":"40.756804","lon":"-73.929575","name":"36 Av"},{"arrival":"09:59:30","id":"F20N","lat":"40.686145","lon":"-73.990862","name":"Bergen St"},{"arrival":"09:59:00","id":"F20N","lat":"40.686145","lon":"-73.990862","name":"Bergen St"},{"arrival":"09:59:30","id":"F20N","lat":"40.686145","lon":"-73.990862","name":"Bergen St"},{"arrival":"09:59:00","id":"R14S","lat":"40.764664","lon":"-73.980658","name":"57 St - 7 Av"},{"arrival":"09:59:00","id":"410S","lat":"40.84848","lon":"-73.911794","name":"176 St"},{"arrival":"09:59:00","id":"410S","lat":"40.84848","lon":"-73.911794","name":"176 St"},{"arrival":"09:59:00","id":"410N","lat":"40.84848","lon":"-73.911794","name":"176 St"},{"arrival":"09:59:00","id":"R06N","lat":"40.756804","lon":"-73.929575","name":"36 Av"},{"arrival":"09:59:00","id":"B22N","lat":"40.597704","lon":"-73.986829","name":"25 Av"},{"arrival":"09:59:00","id":"M21S","lat":"40.713243","lon":"-74.003401","name":"Chambers St"},{"arrival":"09:59:00","id":"623S","lat":"40.79502","lon":"-73.94425","name":"110 St"},{"arrival":"09:59:00","id":"229N","lat":"40.709416","lon":"-74.006571","name":"Fulton St"},{"arrival":"09:59:30","id":"633S","lat":"40.74307","lon":"-73.984264","name":"28 St"},{"arrival":"09:59:30","id":"633S","lat":"40.74307","lon":"-73.984264","name":"28 St"},{"arrival":"09:59:00","id":"B08S","lat":"40.764629","lon":"-73.966113","name":"Lexington Av\/63 St"},{"arrival":"09:59:00","id":"725N","lat":"40.755477","lon":"-73.987691","name":"Times Sq - 42 St"},{"arrival":"09:59:30","id":"B12S","lat":"40.646292","lon":"-73.994324","name":"9 Av"}]}